ZIP_CODE,CITY,STATE,LAT,LONG
501,HOLTSVILLE,NY,40.8154,-73.0451
544,HOLTSVILLE,NY,40.8154,-73.0451
1001,AGAWAM,MA,42.0702,-72.6227
1002,AMHERST,MA,42.3671,-72.4646
1003,AMHERST,MA,42.3919,-72.5248
1004,AMHERST,MA,42.3845,-72.5132
1005,BARRE,MA,42.4097,-72.1084
1007,BELCHERTOWN,MA,42.2751,-72.411
1008,BLANDFORD,MA,42.1829,-72.9361
1009,BONDSVILLE,MA,42.2061,-72.3405
1010,BRIMFIELD,MA,42.1165,-72.1885
1011,CHESTER,MA,42.2794,-72.9888
1012,CHESTERFIELD,MA,42.3923,-72.8256
1013,CHICOPEE,MA,42.1487,-72.6079
1014,CHICOPEE,MA,42.1707,-72.6048
1020,CHICOPEE,MA,42.1764,-72.5761
1021,CHICOPEE,MA,42.1707,-72.6048
1022,CHICOPEE,MA,42.1934,-72.5544
1026,CUMMINGTON,MA,42.4633,-72.9202
1027,EASTHAMPTON,MA,42.2668,-72.669
1028,EAST LONGMEADOW,MA,42.0672,-72.5056
1029,EAST OTIS,MA,42.1909,-73.0517
1030,FEEDING HILLS,MA,42.0718,-72.6751
1031,GILBERTVILLE,MA,42.3322,-72.1986
1032,GOSHEN,MA,42.4404,-72.7995
1033,GRANBY,MA,42.2557,-72.52
1034,GRANVILLE,MA,42.1127,-72.952
1035,HADLEY,MA,42.3606,-72.5715
1036,HAMPDEN,MA,42.0648,-72.4318
1037,HARDWICK,MA,42.3479,-72.2253
1038,HATFIELD,MA,42.3844,-72.6167
1039,HAYDENVILLE,MA,42.3818,-72.7032
1040,HOLYOKE,MA,42.202,-72.6262
1041,HOLYOKE,MA,42.2043,-72.6162
1050,HUNTINGTON,MA,42.2653,-72.8733
1053,LEEDS,MA,42.3543,-72.7034
1054,LEVERETT,MA,42.4682,-72.4993
1056,LUDLOW,MA,42.1728,-72.471
1057,MONSON,MA,42.101,-72.3196
1059,NORTH AMHERST,MA,42.4104,-72.5309
1060,NORTHAMPTON,MA,42.3223,-72.6313
1061,NORTHAMPTON,MA,42.3696,-72.636
1062,FLORENCE,MA,42.3219,-72.6928
1063,NORTHAMPTON,MA,42.3179,-72.6402
1066,NORTH HATFIELD,MA,42.4067,-72.6339
1068,OAKHAM,MA,42.348,-72.0513
1069,PALMER,MA,42.1762,-72.3288
1070,PLAINFIELD,MA,42.5144,-72.9183
1071,RUSSELL,MA,42.1471,-72.8403
1072,SHUTESBURY,MA,42.482,-72.4213
1073,SOUTHAMPTON,MA,42.2247,-72.7194
1074,SOUTH BARRE,MA,42.3854,-72.0954
1075,SOUTH HADLEY,MA,42.2375,-72.5811
1077,SOUTHWICK,MA,42.0511,-72.7706
1079,THORNDIKE,MA,42.1929,-72.3296
1080,THREE RIVERS,MA,42.1819,-72.3624
1081,WALES,MA,42.0627,-72.2046
1082,WARE,MA,42.2618,-72.2583
1083,WARREN,MA,42.204,-72.1994
1084,WEST CHESTERFIELD,MA,42.3903,-72.8709
1085,WESTFIELD,MA,42.1251,-72.7495
1086,WESTFIELD,MA,42.1734,-72.848
1088,WEST HATFIELD,MA,42.3906,-72.6469
1089,WEST SPRINGFIELD,MA,42.1151,-72.6411
1090,WEST SPRINGFIELD,MA,42.1707,-72.6048
1092,WEST WARREN,MA,42.2029,-72.229
1093,WHATELY,MA,42.4427,-72.6525
1094,WHEELWRIGHT,MA,42.3582,-72.1408
1095,WILBRAHAM,MA,42.1245,-72.4464
1096,WILLIAMSBURG,MA,42.4085,-72.778
1097,WORONOCO,MA,42.164,-72.8295
1098,WORTHINGTON,MA,42.3843,-72.9314
1101,SPRINGFIELD,MA,42.1015,-72.5898
1102,SPRINGFIELD,MA,42.1707,-72.6048
1103,SPRINGFIELD,MA,42.1029,-72.5887
1104,SPRINGFIELD,MA,42.1288,-72.5778
1105,SPRINGFIELD,MA,42.0999,-72.5783
1106,LONGMEADOW,MA,42.0507,-72.5676
1107,SPRINGFIELD,MA,42.1179,-72.6065
1108,SPRINGFIELD,MA,42.0853,-72.5584
1109,SPRINGFIELD,MA,42.1145,-72.5543
1111,SPRINGFIELD,MA,42.1707,-72.6048
1115,SPRINGFIELD,MA,42.1029,-72.5916
1116,LONGMEADOW,MA,42.1707,-72.6048
1118,SPRINGFIELD,MA,42.0929,-72.5274
1119,SPRINGFIELD,MA,42.1247,-72.5121
1128,SPRINGFIELD,MA,42.0944,-72.4889
1129,SPRINGFIELD,MA,42.1223,-72.4876
1138,SPRINGFIELD,MA,42.1707,-72.6048
1139,SPRINGFIELD,MA,42.1707,-72.6048
1144,SPRINGFIELD,MA,42.1018,-72.5915
1151,INDIAN ORCHARD,MA,42.1532,-72.505
1152,SPRINGFIELD,MA,42.1707,-72.6048
1199,SPRINGFIELD,MA,42.1199,-72.605
1201,PITTSFIELD,MA,42.4531,-73.2471
1202,PITTSFIELD,MA,42.3929,-73.2285
1203,PITTSFIELD,MA,42.3929,-73.2285
1220,ADAMS,MA,42.6223,-73.1172
1222,ASHLEY FALLS,MA,42.0596,-73.3202
1223,BECKET,MA,42.3594,-73.1203
1224,BERKSHIRE,MA,42.5126,-73.1929
1225,CHESHIRE,MA,42.5611,-73.158
1226,DALTON,MA,42.475,-73.1603
1227,DALTON,MA,42.4737,-73.1662
1229,GLENDALE,MA,42.2793,-73.3435
1230,GREAT BARRINGTON,MA,42.1959,-73.3607
1235,HINSDALE,MA,42.4298,-73.0724
1236,HOUSATONIC,MA,42.2653,-73.3745
1237,LANESBOROUGH,MA,42.5173,-73.2282
1238,LEE,MA,42.299,-73.2317
1240,LENOX,MA,42.3642,-73.2713
1242,LENOX DALE,MA,42.3386,-73.2509
1243,MIDDLEFIELD,MA,42.3561,-73.0104
1244,MILL RIVER,MA,42.1228,-73.254
1245,MONTEREY,MA,42.1867,-73.2065
1247,NORTH ADAMS,MA,42.6955,-73.08
1252,NORTH EGREMONT,MA,42.1986,-73.4462
1253,OTIS,MA,42.1931,-73.0918
1254,RICHMOND,MA,42.3784,-73.3645
1255,SANDISFIELD,MA,42.1094,-73.1163
1256,SAVOY,MA,42.577,-73.0233
1257,SHEFFIELD,MA,42.1001,-73.3611
1258,SOUTH EGREMONT,MA,42.1012,-73.4566
1259,SOUTHFIELD,MA,42.078,-73.2609
1260,SOUTH LEE,MA,42.2779,-73.2773
1262,STOCKBRIDGE,MA,42.301,-73.3223
1263,STOCKBRIDGE,MA,42.3929,-73.2285
1264,TYRINGHAM,MA,42.22,-73.1979
1266,WEST STOCKBRIDGE,MA,42.3348,-73.3825
1267,WILLIAMSTOWN,MA,42.7089,-73.2036
1270,WINDSOR,MA,42.515,-73.0412
1301,GREENFIELD,MA,42.6013,-72.6236
1302,GREENFIELD,MA,42.5222,-72.6242
1330,ASHFIELD,MA,42.5232,-72.811
1331,ATHOL,MA,42.5959,-72.2267
1337,BERNARDSTON,MA,42.6952,-72.5772
1338,BUCKLAND,MA,42.5736,-72.8213
1339,CHARLEMONT,MA,42.608,-72.8901
1340,COLRAIN,MA,42.679,-72.7265
1341,CONWAY,MA,42.5138,-72.7025
1342,DEERFIELD,MA,42.5406,-72.6072
1343,DRURY,MA,42.6427,-72.9862
1344,ERVING,MA,42.6076,-72.4292
1346,HEATH,MA,42.6853,-72.8391
1347,LAKE PLEASANT,MA,42.5566,-72.5181
1349,MILLERS FALLS,MA,42.582,-72.4926
1350,MONROE BRIDGE,MA,42.7215,-72.9762
1351,MONTAGUE,MA,42.5429,-72.5328
1354,GILL,MA,42.6404,-72.4995
1355,NEW SALEM,MA,42.5146,-72.3062
1360,NORTHFIELD,MA,42.6887,-72.451
1364,ORANGE,MA,42.6129,-72.2924
1366,PETERSHAM,MA,42.4898,-72.1893
1367,ROWE,MA,42.6953,-72.9258
1368,ROYALSTON,MA,42.6722,-72.1964
1370,SHELBURNE FALLS,MA,42.6022,-72.7391
1373,SOUTH DEERFIELD,MA,42.4756,-72.6153
1375,SUNDERLAND,MA,42.4539,-72.5676
1376,TURNERS FALLS,MA,42.5954,-72.5557
1378,WARWICK,MA,42.6671,-72.3397
1379,WENDELL,MA,42.5656,-72.4009
1380,WENDELL DEPOT,MA,42.5534,-72.3927
1420,FITCHBURG,MA,42.5796,-71.8031
1430,ASHBURNHAM,MA,42.6496,-71.9267
1431,ASHBY,MA,42.6745,-71.8174
1432,AYER,MA,42.5591,-71.5788
1434,DEVENS,MA,42.5385,-71.6115
1436,BALDWINVILLE,MA,42.5936,-72.0646
1438,EAST TEMPLETON,MA,42.5631,-72.037
1440,GARDNER,MA,42.574,-71.9898
1441,WESTMINSTER,MA,42.5459,-71.9106
1450,GROTON,MA,42.6124,-71.5584
1451,HARVARD,MA,42.4986,-71.5753
1452,HUBBARDSTON,MA,42.4865,-72.0012
1453,LEOMINSTER,MA,42.5274,-71.7563
1460,LITTLETON,MA,42.5401,-71.4877
1462,LUNENBURG,MA,42.5884,-71.7266
1463,PEPPERELL,MA,42.6689,-71.5934
1464,SHIRLEY,MA,42.5734,-71.6483
1467,STILL RIVER,MA,42.4871,-71.6131
1468,TEMPLETON,MA,42.546,-72.065
1469,TOWNSEND,MA,42.6525,-71.6896
1470,GROTON,MA,42.6112,-71.5745
1471,GROTON,MA,42.6112,-71.5745
1472,WEST GROTON,MA,42.6043,-71.6273
1473,WESTMINSTER,MA,42.5483,-71.9096
1474,WEST TOWNSEND,MA,42.6678,-71.7522
1475,WINCHENDON,MA,42.6789,-72.0475
1501,AUBURN,MA,42.2055,-71.8391
1503,BERLIN,MA,42.3844,-71.6356
1504,BLACKSTONE,MA,42.0287,-71.5269
1505,BOYLSTON,MA,42.3377,-71.731
1506,BROOKFIELD,MA,42.1991,-72.0989
1507,CHARLTON,MA,42.1379,-71.9664
1508,CHARLTON CITY,MA,42.1459,-71.9884
1509,CHARLTON DEPOT,MA,42.1731,-71.9787
1510,CLINTON,MA,42.4181,-71.6828
1515,EAST BROOKFIELD,MA,42.2193,-72.0481
1516,DOUGLAS,MA,42.0528,-71.7509
1518,FISKDALE,MA,42.1228,-72.1178
1519,GRAFTON,MA,42.2004,-71.6868
1520,HOLDEN,MA,42.342,-71.8414
1521,HOLLAND,MA,42.0403,-72.1544
1522,JEFFERSON,MA,42.3755,-71.8706
1523,LANCASTER,MA,42.451,-71.6868
1524,LEICESTER,MA,42.237,-71.9188
1525,LINWOOD,MA,42.0973,-71.6448
1526,MANCHAUG,MA,42.0945,-71.7476
1527,MILLBURY,MA,42.1968,-71.7644
1529,MILLVILLE,MA,42.0331,-71.5798
1531,NEW BRAINTREE,MA,42.3198,-72.1306
1532,NORTHBOROUGH,MA,42.3182,-71.6464
1534,NORTHBRIDGE,MA,42.1494,-71.6564
1535,NORTH BROOKFIELD,MA,42.2665,-72.0821
1536,NORTH GRAFTON,MA,42.2297,-71.7037
1537,NORTH OXFORD,MA,42.1655,-71.886
1538,NORTH UXBRIDGE,MA,42.0876,-71.6412
1540,OXFORD,MA,42.1129,-71.8687
1541,PRINCETON,MA,42.4508,-71.8762
1542,ROCHDALE,MA,42.1997,-71.9069
1543,RUTLAND,MA,42.3762,-71.949
1545,SHREWSBURY,MA,42.2848,-71.7205
1546,SHREWSBURY,MA,42.3648,-71.8969
1550,SOUTHBRIDGE,MA,42.075,-72.0353
1560,SOUTH GRAFTON,MA,42.176,-71.6927
1561,SOUTH LANCASTER,MA,42.4435,-71.6861
1562,SPENCER,MA,42.2441,-71.9906
1564,STERLING,MA,42.4354,-71.7752
1566,STURBRIDGE,MA,42.1126,-72.0842
1568,UPTON,MA,42.1756,-71.6032
1569,UXBRIDGE,MA,42.0744,-71.6329
1570,WEBSTER,MA,42.0521,-71.8486
1571,DUDLEY,MA,42.0489,-71.8932
1581,WESTBOROUGH,MA,42.2679,-71.6176
1583,WEST BOYLSTON,MA,42.3584,-71.7838
1585,WEST BROOKFIELD,MA,42.2441,-72.1511
1586,WEST MILLBURY,MA,42.1712,-71.8037
1588,WHITINSVILLE,MA,42.1153,-71.6644
1590,SUTTON,MA,42.1266,-71.7552
1601,WORCESTER,MA,42.2626,-71.8023
1602,WORCESTER,MA,42.2703,-71.8417
1603,WORCESTER,MA,42.245,-71.838
1604,WORCESTER,MA,42.2541,-71.7746
1605,WORCESTER,MA,42.2894,-71.7888
1606,WORCESTER,MA,42.311,-71.7958
1607,WORCESTER,MA,42.2303,-71.7938
1608,WORCESTER,MA,42.2624,-71.8003
1609,WORCESTER,MA,42.2826,-71.8277
1610,WORCESTER,MA,42.2492,-71.8108
1611,CHERRY VALLEY,MA,42.2373,-71.875
1612,PAXTON,MA,42.3066,-71.9202
1613,WORCESTER,MA,42.2933,-71.802
1614,WORCESTER,MA,42.2626,-71.8023
1615,WORCESTER,MA,42.2626,-71.8023
1653,WORCESTER,MA,42.3648,-71.8969
1655,WORCESTER,MA,42.3648,-71.8969
1701,FRAMINGHAM,MA,42.3007,-71.4255
1702,FRAMINGHAM,MA,42.2822,-71.4339
1703,FRAMINGHAM,MA,42.4464,-71.4594
1704,FRAMINGHAM,MA,42.4464,-71.4594
1705,FRAMINGHAM,MA,42.4464,-71.4594
1718,ACTON,MA,42.4851,-71.4328
1719,BOXBOROUGH,MA,42.4884,-71.5178
1720,ACTON,MA,42.4751,-71.4483
1721,ASHLAND,MA,42.2539,-71.4583
1730,BEDFORD,MA,42.4843,-71.2768
1731,HANSCOM AFB,MA,42.4567,-71.2795
1740,BOLTON,MA,42.4365,-71.6076
1741,CARLISLE,MA,42.5286,-71.3519
1742,CONCORD,MA,42.4567,-71.3747
1745,FAYVILLE,MA,42.2934,-71.5028
1746,HOLLISTON,MA,42.2026,-71.4361
1747,HOPEDALE,MA,42.1268,-71.5376
1748,HOPKINTON,MA,42.219,-71.5302
1749,HUDSON,MA,42.3918,-71.5609
1752,MARLBOROUGH,MA,42.3509,-71.5434
1754,MAYNARD,MA,42.4321,-71.455
1756,MENDON,MA,42.0967,-71.5499
1757,MILFORD,MA,42.1511,-71.5274
1760,NATICK,MA,42.2875,-71.3574
1770,SHERBORN,MA,42.2331,-71.3787
1772,SOUTHBOROUGH,MA,42.2939,-71.532
1773,LINCOLN,MA,42.4217,-71.3137
1775,STOW,MA,42.4308,-71.515
1776,SUDBURY,MA,42.3837,-71.4282
1778,WAYLAND,MA,42.3486,-71.3588
1784,WOODVILLE,MA,42.2376,-71.562
1801,WOBURN,MA,42.4829,-71.1574
1803,BURLINGTON,MA,42.5089,-71.2004
1805,BURLINGTON,MA,42.5048,-71.1956
1810,ANDOVER,MA,42.6496,-71.1565
1812,ANDOVER,MA,42.6472,-71.1842
1813,WOBURN,MA,42.4793,-71.1523
1815,WOBURN,MA,42.4793,-71.1523
1821,BILLERICA,MA,42.5519,-71.2518
1822,BILLERICA,MA,42.5584,-71.2689
1824,CHELMSFORD,MA,42.5911,-71.3556
1826,DRACUT,MA,42.6764,-71.3186
1827,DUNSTABLE,MA,42.6739,-71.4952
1830,HAVERHILL,MA,42.7856,-71.0721
1831,HAVERHILL,MA,42.7711,-71.1221
1832,HAVERHILL,MA,42.7792,-71.1095
1833,GEORGETOWN,MA,42.7281,-70.9822
1834,GROVELAND,MA,42.753,-71.027
1835,HAVERHILL,MA,42.7528,-71.0843
1840,LAWRENCE,MA,42.708,-71.1638
1841,LAWRENCE,MA,42.7115,-71.167
1842,LAWRENCE,MA,42.707,-71.1631
1843,LAWRENCE,MA,42.6911,-71.1605
1844,METHUEN,MA,42.728,-71.181
1845,NORTH ANDOVER,MA,42.6826,-71.109
1850,LOWELL,MA,42.656,-71.3051
1851,LOWELL,MA,42.6315,-71.3329
1852,LOWELL,MA,42.6344,-71.2983
1853,LOWELL,MA,42.6334,-71.3162
1854,LOWELL,MA,42.6493,-71.3355
1860,MERRIMAC,MA,42.8346,-71.0047
1862,NORTH BILLERICA,MA,42.5757,-71.2902
1863,NORTH CHELMSFORD,MA,42.6347,-71.3908
1864,NORTH READING,MA,42.5819,-71.0947
1865,NUTTING LAKE,MA,42.5379,-71.2689
1866,PINEHURST,MA,42.5293,-71.2281
1867,READING,MA,42.528,-71.109
1876,TEWKSBURY,MA,42.6028,-71.2232
1879,TYNGSBORO,MA,42.6724,-71.4158
1880,WAKEFIELD,MA,42.5009,-71.0685
1885,WEST BOXFORD,MA,42.707,-71.0639
1886,WESTFORD,MA,42.5864,-71.4401
1887,WILMINGTON,MA,42.5581,-71.1723
1888,WOBURN,MA,42.4793,-71.1523
1889,NORTH READING,MA,42.5716,-71.1096
1890,WINCHESTER,MA,42.453,-71.1441
1899,ANDOVER,MA,42.6584,-71.137
1901,LYNN,MA,42.4612,-70.9467
1902,LYNN,MA,42.4698,-70.942
1903,LYNN,MA,42.4668,-70.9495
1904,LYNN,MA,42.4889,-70.9647
1905,LYNN,MA,42.4694,-70.9728
1906,SAUGUS,MA,42.4633,-71.0111
1907,SWAMPSCOTT,MA,42.4746,-70.9098
1908,NAHANT,MA,42.4261,-70.9277
1910,LYNN,MA,42.4548,-70.9747
1913,AMESBURY,MA,42.8559,-70.9367
1915,BEVERLY,MA,42.5608,-70.8759
1921,BOXFORD,MA,42.6797,-71.0114
1922,BYFIELD,MA,42.7568,-70.9351
1923,DANVERS,MA,42.5694,-70.9425
1929,ESSEX,MA,42.6286,-70.7828
1930,GLOUCESTER,MA,42.6208,-70.6721
1931,GLOUCESTER,MA,42.6159,-70.662
1936,HAMILTON,MA,42.6354,-70.8791
1937,HATHORNE,MA,42.6354,-70.8791
1938,IPSWICH,MA,42.6809,-70.8494
1940,LYNNFIELD,MA,42.5327,-71.0339
1944,MANCHESTER,MA,42.5796,-70.7674
1945,MARBLEHEAD,MA,42.4984,-70.8653
1949,MIDDLETON,MA,42.5942,-71.013
1950,NEWBURYPORT,MA,42.813,-70.8847
1951,NEWBURY,MA,42.7835,-70.8474
1952,SALISBURY,MA,42.8507,-70.8588
1960,PEABODY,MA,42.5326,-70.9612
1961,PEABODY,MA,42.6354,-70.8791
1965,PRIDES CROSSING,MA,42.5581,-70.8257
1966,ROCKPORT,MA,42.658,-70.6194
1969,ROWLEY,MA,42.7138,-70.907
1970,SALEM,MA,42.5151,-70.9003
1971,SALEM,MA,42.6354,-70.8791
1982,SOUTH HAMILTON,MA,42.6185,-70.8561
1983,TOPSFIELD,MA,42.6415,-70.9488
1984,WENHAM,MA,42.6017,-70.8786
1985,WEST NEWBURY,MA,42.7949,-70.9778
2018,ACCORD,MA,42.1745,-70.8837
2019,BELLINGHAM,MA,42.0746,-71.4768
2020,BRANT ROCK,MA,42.0818,-70.6439
2021,CANTON,MA,42.1645,-71.1355
2025,COHASSET,MA,42.2395,-70.8128
2026,DEDHAM,MA,42.2437,-71.1637
2027,DEDHAM,MA,42.18,-71.0892
2030,DOVER,MA,42.2362,-71.2854
2032,EAST WALPOLE,MA,42.1532,-71.2179
2035,FOXBORO,MA,42.0649,-71.2441
2038,FRANKLIN,MA,42.0935,-71.4058
2040,GREENBUSH,MA,42.1793,-70.7495
2041,GREEN HARBOR,MA,42.0696,-70.6491
2043,HINGHAM,MA,42.2245,-70.8911
2044,HINGHAM,MA,42.2418,-70.8898
2045,HULL,MA,42.2853,-70.8754
2047,HUMAROCK,MA,42.1428,-70.6935
2048,MANSFIELD,MA,42.0212,-71.2178
2050,MARSHFIELD,MA,42.1062,-70.6993
2051,MARSHFIELD HILLS,MA,42.1512,-70.7341
2052,MEDFIELD,MA,42.1845,-71.3048
2053,MEDWAY,MA,42.1514,-71.4217
2054,MILLIS,MA,42.1669,-71.3607
2055,MINOT,MA,42.2404,-70.762
2056,NORFOLK,MA,42.1177,-71.3269
2059,NORTH MARSHFIELD,MA,42.1432,-70.7703
2060,NORTH SCITUATE,MA,42.219,-70.7856
2061,NORWELL,MA,42.1596,-70.8217
2062,NORWOOD,MA,42.1868,-71.2033
2065,OCEAN BLUFF,MA,42.0972,-70.6516
2066,SCITUATE,MA,42.2032,-70.7525
2067,SHARON,MA,42.1094,-71.1759
2070,SHELDONVILLE,MA,42.0348,-71.387
2071,SOUTH WALPOLE,MA,42.0992,-71.2752
2072,STOUGHTON,MA,42.1253,-71.1074
2081,WALPOLE,MA,42.1444,-71.2544
2090,WESTWOOD,MA,42.2148,-71.2104
2093,WRENTHAM,MA,42.0617,-71.3396
2108,BOSTON,MA,42.3576,-71.0684
2109,BOSTON,MA,42.36,-71.0545
2110,BOSTON,MA,42.3576,-71.0514
2111,BOSTON,MA,42.3503,-71.0629
2112,BOSTON,MA,42.3584,-71.0598
2113,BOSTON,MA,42.3657,-71.056
2114,BOSTON,MA,42.3611,-71.0682
2115,BOSTON,MA,42.3427,-71.0922
2116,BOSTON,MA,42.3492,-71.0768
2117,BOSTON,MA,42.3585,-71.058
2118,BOSTON,MA,42.3362,-71.0729
2119,ROXBURY,MA,42.3251,-71.0953
2120,ROXBURY CROSSING,MA,42.3307,-71.0912
2121,DORCHESTER,MA,42.2973,-71.0745
2122,DORCHESTER,MA,42.2973,-71.0745
2123,BOSTON,MA,42.3389,-70.9196
2124,DORCHESTER CENTER,MA,42.2918,-71.0717
2125,DORCHESTER,MA,42.2973,-71.0745
2126,MATTAPAN,MA,42.2739,-71.0939
2127,BOSTON,MA,42.3347,-71.0375
2128,BOSTON,MA,42.3642,-71.0257
2129,CHARLESTOWN,MA,42.3778,-71.0627
2130,JAMAICA PLAIN,MA,42.3126,-71.1115
2131,ROSLINDALE,MA,42.2836,-71.1295
2132,WEST ROXBURY,MA,42.2787,-71.1589
2133,BOSTON,MA,42.3584,-71.0598
2134,ALLSTON,MA,42.3535,-71.1329
2135,BRIGHTON,MA,42.3478,-71.1566
2136,HYDE PARK,MA,42.254,-71.1261
2137,READVILLE,MA,42.2404,-71.137
2138,CAMBRIDGE,MA,42.377,-71.1256
2139,CAMBRIDGE,MA,42.3647,-71.1042
2140,CAMBRIDGE,MA,42.3932,-71.1338
2141,CAMBRIDGE,MA,42.3687,-71.0836
2142,CAMBRIDGE,MA,42.362,-71.083
2143,SOMERVILLE,MA,42.3829,-71.1028
2144,SOMERVILLE,MA,42.4003,-71.1221
2145,SOMERVILLE,MA,42.3907,-71.0929
2148,MALDEN,MA,42.4291,-71.0605
2149,EVERETT,MA,42.4112,-71.0514
2150,CHELSEA,MA,42.3963,-71.0325
2151,REVERE,MA,42.4138,-71.0052
2152,WINTHROP,MA,42.3763,-70.98
2153,MEDFORD,MA,42.4184,-71.1062
2155,MEDFORD,MA,42.4173,-71.1087
2156,WEST MEDFORD,MA,42.4223,-71.1328
2163,BOSTON,MA,42.3253,-71.1122
2169,QUINCY,MA,42.2491,-70.9978
2170,QUINCY,MA,42.2671,-71.0186
2171,QUINCY,MA,42.2825,-71.0241
2176,MELROSE,MA,42.4581,-71.0632
2180,STONEHAM,MA,42.4828,-71.0978
2184,BRAINTREE,MA,42.2093,-70.9963
2185,BRAINTREE,MA,42.18,-71.0892
2186,MILTON,MA,42.2537,-71.0771
2187,MILTON VILLAGE,MA,42.2668,-71.0717
2188,WEYMOUTH,MA,42.2113,-70.9582
2189,EAST WEYMOUTH,MA,42.214,-70.9203
2190,SOUTH WEYMOUTH,MA,42.1751,-70.9495
2191,NORTH WEYMOUTH,MA,42.2459,-70.9467
2196,BOSTON,MA,42.3584,-71.0598
2199,BOSTON,MA,42.3479,-71.0825
2201,BOSTON,MA,42.3584,-71.0598
2203,BOSTON,MA,42.3615,-71.0604
2204,BOSTON,MA,42.3389,-70.9196
2205,BOSTON,MA,42.3503,-71.0539
2206,BOSTON,MA,42.3389,-70.9196
2210,BOSTON,MA,42.3489,-71.0465
2211,BOSTON,MA,42.3584,-71.0598
2212,BOSTON,MA,42.3584,-71.0598
2215,BOSTON,MA,42.3471,-71.1027
2217,BOSTON,MA,42.3389,-70.9196
2222,BOSTON,MA,42.3644,-71.0633
2238,CAMBRIDGE,MA,42.3751,-71.1056
2241,BOSTON,MA,42.3584,-71.0598
2266,BOSTON,MA,42.3584,-71.0598
2269,QUINCY,MA,42.2529,-71.0023
2283,BOSTON,MA,42.3389,-70.9196
2284,BOSTON,MA,42.3389,-70.9196
2293,BOSTON,MA,42.3584,-71.0598
2297,BOSTON,MA,42.3584,-71.0598
2298,BOSTON,MA,42.3823,-71.0323
2301,BROCKTON,MA,42.0794,-71.04
2302,BROCKTON,MA,42.0847,-71.0002
2303,BROCKTON,MA,42.0834,-71.0184
2304,BROCKTON,MA,42.0834,-71.0184
2305,BROCKTON,MA,42.0834,-71.0184
2322,AVON,MA,42.1258,-71.0437
2324,BRIDGEWATER,MA,41.9773,-70.9723
2325,BRIDGEWATER,MA,41.9873,-70.9728
2327,BRYANTVILLE,MA,42.0407,-70.8272
2330,CARVER,MA,41.8883,-70.7678
2331,DUXBURY,MA,41.9705,-70.7014
2332,DUXBURY,MA,42.0399,-70.7163
2333,EAST BRIDGEWATER,MA,42.0315,-70.945
2334,EASTON,MA,42.0235,-71.1324
2337,ELMWOOD,MA,42.0098,-70.962
2338,HALIFAX,MA,42.0002,-70.8448
2339,HANOVER,MA,42.1214,-70.857
2340,HANOVER,MA,42.1137,-70.8161
2341,HANSON,MA,42.0616,-70.8651
2343,HOLBROOK,MA,42.1464,-71.0083
2344,MIDDLEBORO,MA,41.8932,-70.9112
2345,MANOMET,MA,41.8882,-70.581
2346,MIDDLEBORO,MA,41.8884,-70.893
2347,LAKEVILLE,MA,41.8374,-70.9582
2348,LAKEVILLE,MA,41.8459,-70.9495
2349,MIDDLEBORO,MA,41.8932,-70.9112
2350,MONPONSETT,MA,42.0185,-70.8475
2351,ABINGTON,MA,42.1167,-70.9543
2355,NORTH CARVER,MA,41.9169,-70.8013
2356,NORTH EASTON,MA,42.059,-71.1123
2357,NORTH EASTON,MA,42.0645,-71.0871
2358,NORTH PEMBROKE,MA,42.0932,-70.7925
2359,PEMBROKE,MA,42.0621,-70.8044
2360,PLYMOUTH,MA,41.9104,-70.642
2361,PLYMOUTH,MA,41.9705,-70.7014
2362,PLYMOUTH,MA,41.9584,-70.6673
2364,KINGSTON,MA,41.995,-70.741
2366,SOUTH CARVER,MA,41.8501,-70.7044
2367,PLYMPTON,MA,41.9655,-70.8046
2368,RANDOLPH,MA,42.1736,-71.0514
2370,ROCKLAND,MA,42.1293,-70.9133
2375,SOUTH EASTON,MA,42.0257,-71.0988
2379,WEST BRIDGEWATER,MA,42.0255,-71.0161
2381,WHITE HORSE BEACH,MA,41.9316,-70.5611
2382,WHITMAN,MA,42.0816,-70.9381
2420,LEXINGTON,MA,42.4563,-71.2167
2421,LEXINGTON,MA,42.4426,-71.2265
2445,BROOKLINE,MA,42.3259,-71.1341
2446,BROOKLINE,MA,42.3431,-71.123
2447,BROOKLINE VILLAGE,MA,42.3329,-71.1162
2451,WALTHAM,MA,42.3986,-71.2451
2452,WALTHAM,MA,42.3943,-71.218
2453,WALTHAM,MA,42.3654,-71.2317
2454,WALTHAM,MA,42.3567,-71.2505
2455,NORTH WALTHAM,MA,42.3621,-71.2055
2456,NEW TOWN,MA,42.4464,-71.4594
2457,BABSON PARK,MA,42.18,-71.0892
2458,NEWTON,MA,42.3528,-71.1875
2459,NEWTON CENTER,MA,42.3341,-71.1833
2460,NEWTONVILLE,MA,42.352,-71.2084
2461,NEWTON HIGHLANDS,MA,42.3168,-71.2084
2462,NEWTON LOWER FALLS,MA,42.3299,-71.2562
2464,NEWTON UPPER FALLS,MA,42.3129,-71.2195
2465,WEST NEWTON,MA,42.3492,-71.2267
2466,AUBURNDALE,MA,42.3441,-71.248
2467,CHESTNUT HILL,MA,42.3164,-71.1612
2468,WABAN,MA,42.3271,-71.2315
2471,WATERTOWN,MA,42.3709,-71.1828
2472,WATERTOWN,MA,42.37,-71.1773
2474,ARLINGTON,MA,42.4202,-71.1565
2475,ARLINGTON HEIGHTS,MA,42.4204,-71.1801
2476,ARLINGTON,MA,42.4162,-71.1752
2477,WATERTOWN,MA,42.3709,-71.1828
2478,BELMONT,MA,42.3959,-71.1787
2479,WAVERLEY,MA,42.3876,-71.1828
2481,WELLESLEY HILLS,MA,42.3106,-71.2747
2482,WELLESLEY,MA,42.2945,-71.2992
2492,NEEDHAM,MA,42.2798,-71.2501
2493,WESTON,MA,42.3589,-71.3001
2494,NEEDHAM HEIGHTS,MA,42.2945,-71.2328
2495,NONANTUM,MA,42.3626,-71.2023
2532,BUZZARDS BAY,MA,41.7455,-70.5905
2534,CATAUMET,MA,41.6694,-70.6234
2535,CHILMARK,MA,41.3575,-70.7416
2536,EAST FALMOUTH,MA,41.5968,-70.5671
2537,EAST SANDWICH,MA,41.7283,-70.44
2538,EAST WAREHAM,MA,41.7682,-70.6532
2539,EDGARTOWN,MA,41.3889,-70.5339
2540,FALMOUTH,MA,41.5648,-70.6217
2541,FALMOUTH,MA,41.5515,-70.6148
2542,BUZZARDS BAY,MA,41.6531,-70.5537
2543,WOODS HOLE,MA,41.5263,-70.6643
2552,MENEMSHA,MA,41.3798,-70.6431
2553,MONUMENT BEACH,MA,41.6734,-70.608
2554,NANTUCKET,MA,41.2725,-70.0932
2556,NORTH FALMOUTH,MA,41.6417,-70.623
2557,OAK BLUFFS,MA,41.4543,-70.562
2558,ONSET,MA,41.7476,-70.6582
2559,POCASSET,MA,41.6881,-70.6105
2561,SAGAMORE,MA,41.7703,-70.5337
2562,SAGAMORE BEACH,MA,41.7933,-70.5196
2563,SANDWICH,MA,41.7113,-70.4775
2564,SIASCONSET,MA,41.2639,-69.9626
2568,VINEYARD HAVEN,MA,41.45,-70.5937
2571,WAREHAM,MA,41.7541,-70.7116
2574,WEST FALMOUTH,MA,41.6039,-70.6382
2575,WEST TISBURY,MA,41.4213,-70.6428
2576,WEST WAREHAM,MA,41.7796,-70.7642
2584,NANTUCKET,MA,41.2778,-70.046
2601,HYANNIS,MA,41.6601,-70.2967
2630,BARNSTABLE,MA,41.6983,-70.3001
2631,BREWSTER,MA,41.7492,-70.0699
2632,CENTERVILLE,MA,41.6606,-70.3532
2633,CHATHAM,MA,41.6889,-69.9722
2634,CENTERVILLE,MA,41.6487,-70.3481
2635,COTUIT,MA,41.6243,-70.4364
2637,CUMMAQUID,MA,41.7014,-70.2772
2638,DENNIS,MA,41.7322,-70.1911
2639,DENNIS PORT,MA,41.6649,-70.1327
2641,EAST DENNIS,MA,41.7426,-70.162
2642,EASTHAM,MA,41.8408,-69.9849
2643,EAST ORLEANS,MA,41.7843,-69.962
2644,FORESTDALE,MA,41.6827,-70.5143
2645,HARWICH,MA,41.7008,-70.0579
2646,HARWICH PORT,MA,41.6703,-70.0722
2647,HYANNIS PORT,MA,41.635,-70.3063
2648,MARSTONS MILLS,MA,41.6703,-70.4163
2649,MASHPEE,MA,41.6181,-70.4854
2650,NORTH CHATHAM,MA,41.703,-69.9666
2651,NORTH EASTHAM,MA,41.8243,-69.9818
2652,NORTH TRURO,MA,42.0338,-70.0875
2653,ORLEANS,MA,41.7792,-69.9822
2655,OSTERVILLE,MA,41.63,-70.3837
2657,PROVINCETOWN,MA,42.0534,-70.1865
2659,SOUTH CHATHAM,MA,41.6801,-70.0241
2660,SOUTH DENNIS,MA,41.7097,-70.1585
2661,SOUTH HARWICH,MA,41.6862,-70.0329
2662,SOUTH ORLEANS,MA,41.7567,-69.9841
2663,SOUTH WELLFLEET,MA,41.8005,-70.0768
2664,SOUTH YARMOUTH,MA,41.6739,-70.1949
2666,TRURO,MA,41.9988,-70.0564
2667,WELLFLEET,MA,41.9289,-70.0186
2668,WEST BARNSTABLE,MA,41.7002,-70.372
2669,WEST CHATHAM,MA,41.6812,-69.9911
2670,WEST DENNIS,MA,41.6626,-70.1681
2671,WEST HARWICH,MA,41.6694,-70.1135
2672,WEST HYANNISPORT,MA,41.6356,-70.3233
2673,WEST YARMOUTH,MA,41.6614,-70.2363
2675,YARMOUTH PORT,MA,41.7051,-70.227
2702,ASSONET,MA,41.7975,-71.0607
2703,ATTLEBORO,MA,41.9296,-71.3009
2712,CHARTLEY,MA,41.9487,-71.2259
2713,CUTTYHUNK,MA,41.4218,-70.9313
2714,DARTMOUTH,MA,41.7562,-71.0671
2715,DIGHTON,MA,41.8125,-71.1427
2717,EAST FREETOWN,MA,41.7635,-70.9677
2718,EAST TAUNTON,MA,41.8736,-71.0192
2719,FAIRHAVEN,MA,41.6409,-70.8896
2720,FALL RIVER,MA,41.7182,-71.14
2721,FALL RIVER,MA,41.6883,-71.1574
2722,FALL RIVER,MA,41.7015,-71.155
2723,FALL RIVER,MA,41.6926,-71.1332
2724,FALL RIVER,MA,41.685,-71.1748
2725,SOMERSET,MA,41.7223,-71.178
2726,SOMERSET,MA,41.756,-71.1492
2738,MARION,MA,41.7095,-70.7613
2739,MATTAPOISETT,MA,41.6618,-70.8164
2740,NEW BEDFORD,MA,41.6347,-70.9372
2741,NEW BEDFORD,MA,41.6362,-70.9342
2742,NEW BEDFORD,MA,41.6362,-70.9342
2743,ACUSHNET,MA,41.6997,-70.9087
2744,NEW BEDFORD,MA,41.6127,-70.9167
2745,NEW BEDFORD,MA,41.6913,-70.9355
2746,NEW BEDFORD,MA,41.66,-70.9324
2747,NORTH DARTMOUTH,MA,41.6338,-70.9958
2748,SOUTH DARTMOUTH,MA,41.5665,-70.9843
2760,NORTH ATTLEBORO,MA,41.9775,-71.3298
2761,NORTH ATTLEBORO,MA,41.9834,-71.3328
2762,PLAINVILLE,MA,42.0124,-71.3275
2763,ATTLEBORO FALLS,MA,41.9726,-71.3082
2764,NORTH DIGHTON,MA,41.8529,-71.1485
2766,NORTON,MA,41.9718,-71.1894
2767,RAYNHAM,MA,41.9324,-71.0469
2768,RAYNHAM CENTER,MA,41.7562,-71.0671
2769,REHOBOTH,MA,41.8515,-71.2545
2770,ROCHESTER,MA,41.7591,-70.8523
2771,SEEKONK,MA,41.8378,-71.3224
2777,SWANSEA,MA,41.7473,-71.2122
2779,BERKLEY,MA,41.8353,-71.0765
2780,TAUNTON,MA,41.905,-71.1026
2783,TAUNTON,MA,41.7562,-71.0671
2790,WESTPORT,MA,41.6211,-71.089
2791,WESTPORT POINT,MA,41.5223,-71.0745
2801,ADAMSVILLE,RI,41.5301,-71.2841
2802,ALBION,RI,41.9512,-71.4545
2804,ASHAWAY,RI,41.4231,-71.7837
2806,BARRINGTON,RI,41.7443,-71.3175
2807,BLOCK ISLAND,RI,41.1715,-71.5748
2808,BRADFORD,RI,41.4114,-71.7465
2809,BRISTOL,RI,41.6825,-71.2676
2812,CAROLINA,RI,41.4691,-71.6751
2813,CHARLESTOWN,RI,41.4007,-71.6615
2814,CHEPACHET,RI,41.9155,-71.6795
2815,CLAYVILLE,RI,41.7778,-71.6706
2816,COVENTRY,RI,41.6914,-71.5768
2817,WEST GREENWICH,RI,41.64,-71.6435
2818,EAST GREENWICH,RI,41.6498,-71.474
2822,EXETER,RI,41.574,-71.6076
2823,FISKEVILLE,RI,41.7312,-71.5468
2824,FORESTDALE,RI,42.0002,-71.5631
2825,FOSTER,RI,41.7815,-71.7187
2826,GLENDALE,RI,41.9762,-71.6326
2827,GREENE,RI,41.7062,-71.7356
2828,GREENVILLE,RI,41.8734,-71.5569
2829,HARMONY,RI,41.8793,-71.5894
2830,HARRISVILLE,RI,41.9764,-71.6534
2831,HOPE,RI,41.7516,-71.5612
2832,HOPE VALLEY,RI,41.5096,-71.7339
2833,HOPKINTON,RI,41.4751,-71.7726
2835,JAMESTOWN,RI,41.5164,-71.3761
2836,KENYON,RI,41.4474,-71.6204
2837,LITTLE COMPTON,RI,41.522,-71.1612
2838,MANVILLE,RI,41.9689,-71.4741
2839,MAPLEVILLE,RI,41.9417,-71.6376
2840,NEWPORT,RI,41.4876,-71.3271
2841,NEWPORT,RI,41.499,-71.299
2842,MIDDLETOWN,RI,41.5198,-71.2731
2852,NORTH KINGSTOWN,RI,41.5894,-71.4625
2857,NORTH SCITUATE,RI,41.8439,-71.6242
2858,OAKLAND,RI,41.9573,-71.6478
2859,PASCOAG,RI,41.9627,-71.7099
2860,PAWTUCKET,RI,41.8729,-71.3907
2861,PAWTUCKET,RI,41.8814,-71.356
2862,PAWTUCKET,RI,41.8612,-71.3691
2863,CENTRAL FALLS,RI,41.8883,-71.3945
2864,CUMBERLAND,RI,41.9484,-71.4154
2865,LINCOLN,RI,41.9089,-71.4348
2871,PORTSMOUTH,RI,41.5944,-71.252
2872,PRUDENCE ISLAND,RI,41.7071,-71.2868
2873,ROCKVILLE,RI,41.5199,-71.774
2874,SAUNDERSTOWN,RI,41.5105,-71.4427
2875,SHANNOCK,RI,41.456,-71.6355
2876,SLATERSVILLE,RI,41.9984,-71.5763
2877,SLOCUM,RI,41.5289,-71.5299
2878,TIVERTON,RI,41.6338,-71.1808
2879,WAKEFIELD,RI,41.4437,-71.5342
2880,WAKEFIELD,RI,41.3753,-71.6439
2881,KINGSTON,RI,41.4803,-71.5292
2882,NARRAGANSETT,RI,41.4353,-71.4616
2883,PEACE DALE,RI,41.4512,-71.4987
2885,WARREN,RI,41.7256,-71.2702
2886,WARWICK,RI,41.7026,-71.4476
2887,WARWICK,RI,41.7001,-71.4162
2888,WARWICK,RI,41.7494,-71.4084
2889,WARWICK,RI,41.7141,-71.3901
2891,WESTERLY,RI,41.3691,-71.8126
2892,WEST KINGSTON,RI,41.5058,-71.6211
2893,WEST WARWICK,RI,41.7004,-71.5183
2894,WOOD RIVER JUNCTION,RI,41.45,-71.7074
2895,WOONSOCKET,RI,41.9846,-71.5194
2896,NORTH SMITHFIELD,RI,41.9724,-71.5508
2898,WYOMING,RI,41.5041,-71.663
2901,PROVIDENCE,RI,41.8227,-71.4145
2902,PROVIDENCE,RI,41.8184,-71.4249
2903,PROVIDENCE,RI,41.82,-71.4158
2904,PROVIDENCE,RI,41.8541,-71.4378
2905,PROVIDENCE,RI,41.7845,-71.3959
2906,PROVIDENCE,RI,41.8351,-71.3971
2907,PROVIDENCE,RI,41.7971,-71.4255
2908,PROVIDENCE,RI,41.8383,-71.4377
2909,PROVIDENCE,RI,41.8206,-71.4443
2910,CRANSTON,RI,41.7766,-71.4383
2911,NORTH PROVIDENCE,RI,41.8547,-71.4735
2912,PROVIDENCE,RI,41.8267,-71.3977
2914,EAST PROVIDENCE,RI,41.8138,-71.3688
2915,RIVERSIDE,RI,41.7723,-71.3542
2916,RUMFORD,RI,41.8425,-71.3559
2917,SMITHFIELD,RI,41.8964,-71.5207
2918,PROVIDENCE,RI,41.8415,-71.4404
2919,JOHNSTON,RI,41.8274,-71.52
2920,CRANSTON,RI,41.7716,-71.4659
2921,CRANSTON,RI,41.7614,-71.5061
2940,PROVIDENCE,RI,41.824,-71.4128
3031,AMHERST,NH,42.8569,-71.6075
3032,AUBURN,NH,42.9925,-71.3449
3033,BROOKLINE,NH,42.7384,-71.6663
3034,CANDIA,NH,43.0585,-71.3049
3036,CHESTER,NH,42.9678,-71.245
3037,DEERFIELD,NH,43.1378,-71.2513
3038,DERRY,NH,42.8874,-71.302
3040,EAST CANDIA,NH,43.0481,-71.2487
3041,EAST DERRY,NH,42.8945,-71.2912
3042,EPPING,NH,43.0411,-71.0764
3043,FRANCESTOWN,NH,42.992,-71.8113
3044,FREMONT,NH,42.984,-71.1218
3045,GOFFSTOWN,NH,43.0201,-71.5697
3046,DUNBARTON,NH,43.1025,-71.6169
3047,GREENFIELD,NH,42.9493,-71.8728
3048,GREENVILLE,NH,42.7482,-71.7619
3049,HOLLIS,NH,42.7485,-71.5772
3051,HUDSON,NH,42.769,-71.4121
3052,LITCHFIELD,NH,42.843,-71.455
3053,LONDONDERRY,NH,42.8656,-71.3772
3054,MERRIMACK,NH,42.8667,-71.5128
3055,MILFORD,NH,42.8285,-71.6606
3057,MONT VERNON,NH,42.8976,-71.6762
3060,NASHUA,NH,42.7564,-71.4667
3061,NASHUA,NH,42.7654,-71.4676
3062,NASHUA,NH,42.7235,-71.4893
3063,NASHUA,NH,42.7717,-71.5132
3064,NASHUA,NH,42.779,-71.4748
3070,NEW BOSTON,NH,42.9722,-71.6864
3071,NEW IPSWICH,NH,42.7511,-71.8703
3073,NORTH SALEM,NH,42.837,-71.2206
3076,PELHAM,NH,42.7288,-71.3046
3077,RAYMOND,NH,43.0325,-71.1912
3079,SALEM,NH,42.7846,-71.2176
3082,LYNDEBOROUGH,NH,42.8954,-71.7744
3084,TEMPLE,NH,42.82,-71.8523
3086,WILTON,NH,42.8368,-71.7541
3087,WINDHAM,NH,42.8051,-71.3067
3101,MANCHESTER,NH,42.9929,-71.4633
3102,MANCHESTER,NH,42.9944,-71.4884
3103,MANCHESTER,NH,42.9656,-71.4493
3104,MANCHESTER,NH,43.0073,-71.4482
3105,MANCHESTER,NH,42.9956,-71.4548
3106,HOOKSETT,NH,43.0617,-71.4444
3108,MANCHESTER,NH,42.9956,-71.4548
3109,MANCHESTER,NH,42.9713,-71.4135
3110,BEDFORD,NH,42.9403,-71.5213
3111,MANCHESTER,NH,42.9956,-71.4548
3215,WATERVILLE VALLEY,NH,43.9501,-71.4995
3216,ANDOVER,NH,43.4287,-71.783
3217,ASHLAND,NH,43.7034,-71.6121
3218,BARNSTEAD,NH,43.3349,-71.2887
3220,BELMONT,NH,43.4512,-71.489
3221,BRADFORD,NH,43.2517,-71.9617
3222,BRISTOL,NH,43.612,-71.7507
3223,CAMPTON,NH,43.8418,-71.6652
3224,CANTERBURY,NH,43.357,-71.557
3225,CENTER BARNSTEAD,NH,43.3566,-71.2424
3226,CENTER HARBOR,NH,43.7107,-71.4797
3227,CENTER SANDWICH,NH,43.8162,-71.4506
3229,CONTOOCOOK,NH,43.1978,-71.6968
3230,DANBURY,NH,43.5115,-71.8691
3231,EAST ANDOVER,NH,43.4662,-71.7365
3233,ELKINS,NH,43.4209,-71.9373
3234,EPSOM,NH,43.2174,-71.3546
3235,FRANKLIN,NH,43.4426,-71.6491
3237,GILMANTON,NH,43.4175,-71.4121
3238,GLENCLIFF,NH,43.9828,-71.8934
3240,GRAFTON,NH,43.5727,-71.9634
3241,HEBRON,NH,43.7186,-71.827
3242,HENNIKER,NH,43.1791,-71.8159
3243,HILL,NH,43.5274,-71.7292
3244,HILLSBOROUGH,NH,43.1141,-71.8992
3245,HOLDERNESS,NH,43.7378,-71.6044
3246,LACONIA,NH,43.5727,-71.4781
3247,LACONIA,NH,43.589,-71.4455
3249,GILFORD,NH,43.5475,-71.4072
3251,LINCOLN,NH,44.0582,-71.6727
3252,LOCHMERE,NH,43.4686,-71.5371
3253,MEREDITH,NH,43.6311,-71.4997
3254,MOULTONBOROUGH,NH,43.7281,-71.3922
3255,NEWBURY,NH,43.3217,-72.0118
3256,NEW HAMPTON,NH,43.6184,-71.6435
3257,NEW LONDON,NH,43.4145,-71.9857
3258,CHICHESTER,NH,43.244,-71.4105
3259,NORTH SANDWICH,NH,43.8452,-71.385
3260,NORTH SUTTON,NH,43.3653,-71.9341
3261,NORTHWOOD,NH,43.207,-71.2004
3262,NORTH WOODSTOCK,NH,44.0354,-71.6863
3263,PITTSFIELD,NH,43.2874,-71.333
3264,PLYMOUTH,NH,43.757,-71.6881
3266,RUMNEY,NH,43.8044,-71.848
3268,SALISBURY,NH,43.4067,-71.7045
3269,SANBORNTON,NH,43.5496,-71.6003
3272,SOUTH NEWBURY,NH,43.2956,-71.9967
3273,SOUTH SUTTON,NH,43.3042,-71.9289
3275,SUNCOOK,NH,43.1604,-71.4179
3276,TILTON,NH,43.4603,-71.5774
3278,WARNER,NH,43.3035,-71.8353
3279,WARREN,NH,43.9447,-71.8901
3280,WASHINGTON,NH,43.1747,-72.0824
3281,WEARE,NH,43.0714,-71.7038
3282,WENTWORTH,NH,43.8685,-71.9097
3284,SPRINGFIELD,NH,43.4938,-72.047
3285,THORNTON,NH,43.905,-71.647
3287,WILMOT,NH,43.4485,-71.9158
3289,WINNISQUAM,NH,43.4964,-71.5197
3290,NOTTINGHAM,NH,43.1196,-71.111
3291,WEST NOTTINGHAM,NH,43.1823,-71.1396
3293,WOODSTOCK,NH,43.9675,-71.8409
3298,TILTON,NH,43.5249,-71.4458
3299,TILTON,NH,43.5249,-71.4458
3301,CONCORD,NH,43.2185,-71.5277
3302,CONCORD,NH,43.3103,-71.6629
3303,CONCORD,NH,43.2817,-71.6595
3304,BOW,NH,43.1388,-71.5448
3305,CONCORD,NH,43.2134,-71.5172
3307,LOUDON,NH,43.3193,-71.467
3431,KEENE,NH,42.9627,-72.2955
3435,KEENE,NH,42.9337,-72.2781
3440,ANTRIM,NH,43.0595,-71.9387
3441,ASHUELOT,NH,42.7851,-72.4349
3442,BENNINGTON,NH,43.0103,-71.9153
3443,CHESTERFIELD,NH,42.8839,-72.4548
3444,DUBLIN,NH,42.8972,-72.0505
3445,SULLIVAN,NH,42.9982,-72.2019
3446,SWANZEY,NH,42.8411,-72.3301
3447,FITZWILLIAM,NH,42.7611,-72.145
3448,GILSUM,NH,43.0399,-72.2719
3449,HANCOCK,NH,42.9768,-71.9819
3450,HARRISVILLE,NH,42.9399,-72.0972
3451,HINSDALE,NH,42.8027,-72.5015
3452,JAFFREY,NH,42.8178,-72.0275
3455,MARLBOROUGH,NH,42.8988,-72.2013
3456,MARLOW,NH,43.1326,-72.2109
3457,NELSON,NH,42.9906,-72.1309
3458,PETERBOROUGH,NH,42.8856,-71.947
3461,RINDGE,NH,42.7544,-72.019
3462,SPOFFORD,NH,42.912,-72.4103
3464,STODDARD,NH,43.0739,-72.1088
3465,TROY,NH,42.827,-72.1848
3466,WEST CHESTERFIELD,NH,42.8956,-72.5097
3467,WESTMORELAND,NH,42.969,-72.4358
3468,WEST PETERBOROUGH,NH,42.8908,-71.9334
3469,WEST SWANZEY,NH,42.8734,-72.3151
3470,WINCHESTER,NH,42.7788,-72.344
3561,LITTLETON,NH,44.3112,-71.7768
3570,BERLIN,NH,44.4811,-71.1892
3574,BETHLEHEM,NH,44.2808,-71.6829
3575,BRETTON WOODS,NH,44.2581,-71.4412
3576,COLEBROOK,NH,44.9078,-71.4793
3579,ERROL,NH,44.8003,-71.1436
3580,FRANCONIA,NH,44.2053,-71.7518
3581,GORHAM,NH,44.4048,-71.1548
3582,GROVETON,NH,44.5984,-71.5064
3583,JEFFERSON,NH,44.3999,-71.4518
3584,LANCASTER,NH,44.4921,-71.5591
3585,LISBON,NH,44.2148,-71.8966
3586,SUGAR HILL,NH,44.2203,-71.7964
3588,MILAN,NH,44.587,-71.181
3589,MOUNT WASHINGTON,NH,44.6956,-71.3874
3590,NORTH STRATFORD,NH,44.7149,-71.5644
3592,PITTSBURG,NH,45.0866,-71.3636
3593,RANDOLPH,NH,44.4753,-71.1777
3595,TWIN MOUNTAIN,NH,44.2689,-71.5471
3597,WEST STEWARTSTOWN,NH,44.6956,-71.3874
3598,WHITEFIELD,NH,44.3681,-71.6035
3601,ACWORTH,NH,43.196,-72.3001
3602,ALSTEAD,NH,43.1265,-72.3281
3603,CHARLESTOWN,NH,43.2573,-72.4064
3604,DREWSVILLE,NH,43.1281,-72.392
3605,LEMPSTER,NH,43.2136,-72.1968
3607,SOUTH ACWORTH,NH,43.1956,-72.2686
3608,WALPOLE,NH,43.0765,-72.4155
3609,NORTH WALPOLE,NH,43.1428,-72.4483
3740,BATH,NH,44.1808,-71.9828
3741,CANAAN,NH,43.6601,-72.0297
3743,CLAREMONT,NH,43.3679,-72.3422
3745,CORNISH,NH,43.4963,-72.3394
3746,CORNISH FLAT,NH,43.4973,-72.2795
3748,ENFIELD,NH,43.6256,-72.127
3749,ENFIELD CENTER,NH,43.5796,-72.0854
3750,ETNA,NH,43.7113,-72.2125
3751,GEORGES MILLS,NH,43.4317,-72.0673
3752,GOSHEN,NH,43.3026,-72.1241
3753,GRANTHAM,NH,43.5103,-72.1334
3754,GUILD,NH,43.3767,-72.1381
3755,HANOVER,NH,43.7045,-72.285
3756,LEBANON,NH,43.6423,-72.2518
3765,HAVERHILL,NH,44.0394,-72.0573
3766,LEBANON,NH,43.6447,-72.2428
3768,LYME,NH,43.7913,-72.162
3769,LYME CENTER,NH,43.7863,-72.1205
3770,MERIDEN,NH,43.5299,-72.2756
3771,MONROE,NH,44.2734,-72.025
3773,NEWPORT,NH,43.3532,-72.1838
3774,NORTH HAVERHILL,NH,44.0978,-72.0191
3777,ORFORD,NH,43.8941,-72.0978
3779,PIERMONT,NH,43.9906,-72.0813
3780,PIKE,NH,44.0255,-72.0096
3781,PLAINFIELD,NH,43.5519,-72.2704
3782,SUNAPEE,NH,43.3868,-72.095
3784,WEST LEBANON,NH,43.644,-72.3007
3785,WOODSVILLE,NH,44.1385,-71.9892
3801,PORTSMOUTH,NH,43.0729,-70.8052
3802,PORTSMOUTH,NH,43.0718,-70.7626
3803,PORTSMOUTH,NH,43.0718,-70.7626
3804,PORTSMOUTH,NH,43.0718,-70.7626
3809,ALTON,NH,43.463,-71.2297
3810,ALTON BAY,NH,43.4845,-71.2489
3811,ATKINSON,NH,42.837,-71.1603
3812,BARTLETT,NH,44.0802,-71.292
3813,CENTER CONWAY,NH,43.9878,-71.0607
3814,CENTER OSSIPEE,NH,43.7682,-71.1349
3815,CENTER STRAFFORD,NH,43.2629,-71.1071
3816,CENTER TUFTONBORO,NH,43.6849,-71.2551
3817,CHOCORUA,NH,43.8909,-71.2407
3818,CONWAY,NH,43.9742,-71.1503
3819,DANVILLE,NH,42.9234,-71.121
3820,DOVER,NH,43.1888,-70.8868
3821,DOVER,NH,43.1979,-70.8737
3822,DOVER,NH,43.1979,-70.8737
3823,MADBURY,NH,43.1729,-70.9412
3824,DURHAM,NH,43.1174,-70.9197
3825,BARRINGTON,NH,43.2027,-71.0377
3826,EAST HAMPSTEAD,NH,42.8877,-71.128
3827,EAST KINGSTON,NH,42.907,-70.9876
3830,EAST WAKEFIELD,NH,43.6142,-71.0051
3832,EATON CENTER,NH,43.9092,-71.0837
3833,EXETER,NH,42.9815,-70.9478
3835,FARMINGTON,NH,43.3884,-71.0647
3836,FREEDOM,NH,43.8172,-71.0628
3837,GILMANTON IRON WORKS,NH,43.4466,-71.2995
3838,GLEN,NH,44.1018,-71.1925
3839,ROCHESTER,NH,43.262,-70.9837
3840,GREENLAND,NH,43.0353,-70.8475
3841,HAMPSTEAD,NH,42.882,-71.1758
3842,HAMPTON,NH,42.9359,-70.8243
3843,HAMPTON,NH,43.0059,-71.0132
3844,HAMPTON FALLS,NH,42.9263,-70.8876
3845,INTERVALE,NH,44.0955,-71.1194
3846,JACKSON,NH,44.167,-71.1878
3847,KEARSARGE,NH,43.8839,-71.2577
3848,KINGSTON,NH,42.9133,-71.0639
3849,MADISON,NH,43.9152,-71.1254
3850,MELVIN VILLAGE,NH,43.7077,-71.3017
3851,MILTON,NH,43.4229,-71.0114
3852,MILTON MILLS,NH,43.5025,-70.9697
3853,MIRROR LAKE,NH,43.6366,-71.2729
3854,NEW CASTLE,NH,43.0681,-70.7199
3855,NEW DURHAM,NH,43.443,-71.1408
3856,NEWFIELDS,NH,43.0374,-70.9782
3857,NEWMARKET,NH,43.0726,-70.9553
3858,NEWTON,NH,42.8678,-71.042
3859,NEWTON JUNCTION,NH,42.8619,-71.04
3860,NORTH CONWAY,NH,44.0336,-71.1238
3861,LEE,NH,43.1192,-70.9969
3862,NORTH HAMPTON,NH,42.9776,-70.8267
3864,OSSIPEE,NH,43.6945,-71.1129
3865,PLAISTOW,NH,42.8356,-71.0934
3866,ROCHESTER,NH,43.3045,-70.9756
3867,ROCHESTER,NH,43.3045,-70.9756
3868,ROCHESTER,NH,43.32,-70.9413
3869,ROLLINSFORD,NH,43.2269,-70.8332
3870,RYE,NH,43.0095,-70.7652
3871,RYE BEACH,NH,42.9806,-70.7719
3872,SANBORNVILLE,NH,43.5513,-71.02
3873,SANDOWN,NH,42.9308,-71.1861
3874,SEABROOK,NH,42.8854,-70.8646
3875,SILVER LAKE,NH,43.879,-71.1905
3878,SOMERSWORTH,NH,43.2525,-70.8756
3882,EFFINGHAM,NH,43.7012,-70.9834
3883,SOUTH TAMWORTH,NH,43.8077,-71.308
3884,STRAFFORD,NH,43.2506,-71.1625
3885,STRATHAM,NH,43.0194,-70.8997
3886,TAMWORTH,NH,43.862,-71.2645
3887,UNION,NH,43.4861,-71.063
3890,WEST OSSIPEE,NH,43.8118,-71.1946
3894,WOLFEBORO,NH,43.595,-71.1908
3896,WOLFEBORO FALLS,NH,43.5892,-71.2189
3897,WONALANCET,NH,43.9073,-71.3506
3901,BERWICK,ME,43.2899,-70.855
3902,CAPE NEDDICK,ME,43.2133,-70.6397
3903,ELIOT,ME,43.1309,-70.7822
3904,KITTERY,ME,43.0921,-70.7429
3905,KITTERY POINT,ME,43.0976,-70.7121
3906,NORTH BERWICK,ME,43.3254,-70.7212
3907,OGUNQUIT,ME,43.2541,-70.6094
3908,SOUTH BERWICK,ME,43.2292,-70.7859
3909,YORK,ME,43.1544,-70.6578
3910,YORK BEACH,ME,43.2117,-70.732
3911,YORK HARBOR,ME,43.1368,-70.6456
4001,ACTON,ME,43.5494,-70.9307
4002,ALFRED,ME,43.4875,-70.6961
4003,BAILEY ISLAND,ME,43.7341,-69.9952
4004,BAR MILLS,ME,43.6131,-70.5498
4005,BIDDEFORD,ME,43.4935,-70.4883
4006,BIDDEFORD POOL,ME,43.4448,-70.3414
4007,BIDDEFORD,ME,43.4581,-70.5053
4008,BOWDOINHAM,ME,44.0101,-69.8984
4009,BRIDGTON,ME,44.052,-70.7241
4010,BROWNFIELD,ME,43.9381,-70.9087
4011,BRUNSWICK,ME,43.8973,-69.9779
4013,BUSTINS ISLAND,ME,43.799,-70.0698
4014,CAPE PORPOISE,ME,43.3657,-70.6044
4015,CASCO,ME,43.9596,-70.526
4016,CENTER LOVELL,ME,44.181,-70.8917
4017,CHEBEAGUE ISLAND,ME,43.7354,-70.1169
4019,CLIFF ISLAND,ME,43.6955,-70.1071
4020,CORNISH,ME,43.7796,-70.7784
4021,CUMBERLAND CENTER,ME,43.7974,-70.2649
4022,DENMARK,ME,43.9755,-70.7924
4024,EAST BALDWIN,ME,43.8646,-70.6922
4027,LEBANON,ME,43.4597,-70.9152
4028,EAST PARSONSFIELD,ME,43.7334,-70.8434
4029,SEBAGO,ME,43.9017,-70.6878
4030,EAST WATERBORO,ME,43.5995,-70.6906
4032,FREEPORT,ME,43.857,-70.1031
4033,FREEPORT,ME,43.857,-70.1031
4034,FREEPORT,ME,43.857,-70.1031
4037,FRYEBURG,ME,44.0313,-70.9668
4038,GORHAM,ME,43.6843,-70.468
4039,GRAY,ME,43.8942,-70.3429
4040,HARRISON,ME,44.1071,-70.6539
4041,HIRAM,ME,43.8622,-70.8531
4042,HOLLIS CENTER,ME,43.5946,-70.6051
4043,KENNEBUNK,ME,43.3881,-70.5478
4046,KENNEBUNKPORT,ME,43.3923,-70.4729
4047,PARSONSFIELD,ME,43.745,-70.9092
4048,LIMERICK,ME,43.6963,-70.7866
4049,LIMINGTON,ME,43.726,-70.6752
4050,LONG ISLAND,ME,43.692,-70.1551
4051,LOVELL,ME,44.1614,-70.93
4054,MOODY,ME,43.2763,-70.5978
4055,NAPLES,ME,43.9681,-70.5988
4056,NEWFIELD,ME,43.6584,-70.8689
4057,NORTH BRIDGTON,ME,44.0987,-70.6987
4061,NORTH WATERBORO,ME,43.64,-70.7298
4062,WINDHAM,ME,43.7958,-70.4143
4063,OCEAN PARK,ME,43.5006,-70.3862
4064,OLD ORCHARD BEACH,ME,43.5254,-70.3883
4066,ORRS ISLAND,ME,43.7727,-69.9668
4068,PORTER,ME,43.8262,-70.9243
4069,POWNAL,ME,43.89,-70.1955
4070,SCARBOROUGH,ME,43.577,-70.2736
4071,RAYMOND,ME,43.9219,-70.4498
4072,SACO,ME,43.5209,-70.4546
4073,SANFORD,ME,43.4285,-70.7585
4074,SCARBOROUGH,ME,43.5835,-70.3457
4076,SHAPLEIGH,ME,43.5674,-70.8286
4077,SOUTH CASCO,ME,43.91,-70.5245
4078,SOUTH FREEPORT,ME,43.8208,-70.1208
4079,HARPSWELL,ME,43.7811,-69.9955
4082,SOUTH WINDHAM,ME,43.7362,-70.4237
4083,SPRINGVALE,ME,43.4715,-70.8064
4084,STANDISH,ME,43.8142,-70.4807
4085,STEEP FALLS,ME,43.7719,-70.6396
4086,TOPSHAM,ME,43.9814,-69.9378
4087,WATERBORO,ME,43.5661,-70.7431
4088,WATERFORD,ME,44.1931,-70.7163
4090,WELLS,ME,43.3144,-70.5969
4091,WEST BALDWIN,ME,43.8299,-70.749
4092,WESTBROOK,ME,43.6843,-70.358
4093,BUXTON,ME,43.6379,-70.5189
4094,WEST KENNEBUNK,ME,43.4061,-70.5733
4095,WEST NEWFIELD,ME,43.601,-70.9027
4096,YARMOUTH,ME,43.8009,-70.175
4097,NORTH YARMOUTH,ME,43.838,-70.2001
4098,WESTBROOK,ME,43.677,-70.3712
4101,PORTLAND,ME,43.6606,-70.2589
4102,PORTLAND,ME,43.6602,-70.2898
4103,PORTLAND,ME,43.6876,-70.2876
4104,PORTLAND,ME,43.6615,-70.2553
4105,FALMOUTH,ME,43.734,-70.2625
4106,SOUTH PORTLAND,ME,43.6318,-70.2709
4107,CAPE ELIZABETH,ME,43.6017,-70.2301
4108,PEAKS ISLAND,ME,43.6589,-70.194
4109,PORTLAND,ME,43.6783,-70.1987
4110,CUMBERLAND FORESIDE,ME,43.759,-70.1993
4112,PORTLAND,ME,43.6615,-70.2553
4116,SOUTH PORTLAND,ME,43.6415,-70.2409
4122,PORTLAND,ME,43.6615,-70.2553
4123,PORTLAND,ME,43.6615,-70.2553
4124,PORTLAND,ME,43.6615,-70.2553
4210,AUBURN,ME,44.0948,-70.239
4211,AUBURN,ME,44.197,-70.2395
4212,AUBURN,ME,44.197,-70.2395
4216,ANDOVER,ME,44.6637,-70.7967
4217,BETHEL,ME,44.4162,-70.8037
4219,BRYANT POND,ME,44.3957,-70.6435
4220,BUCKFIELD,ME,44.2877,-70.3683
4221,CANTON,ME,44.4602,-70.2998
4222,DURHAM,ME,43.9684,-70.1846
4223,DANVILLE,ME,44.0239,-70.2857
4224,DIXFIELD,ME,44.5548,-70.4241
4225,DRYDEN,ME,44.6027,-70.2265
4226,EAST ANDOVER,ME,44.6084,-70.6993
4227,EAST DIXFIELD,ME,44.5791,-70.3263
4228,EAST LIVERMORE,ME,44.3994,-70.1303
4230,EAST POLAND,ME,44.0627,-70.327
4231,STONEHAM,ME,44.2641,-70.8875
4234,EAST WILTON,ME,44.6159,-70.1928
4236,GREENE,ME,44.1891,-70.1455
4237,HANOVER,ME,44.4959,-70.7167
4238,HEBRON,ME,44.2021,-70.3754
4239,JAY,ME,44.516,-70.2099
4240,LEWISTON,ME,44.0985,-70.1916
4241,LEWISTON,ME,44.197,-70.2395
4243,LEWISTON,ME,44.197,-70.2395
4250,LISBON,ME,44.0255,-70.1139
4252,LISBON FALLS,ME,43.9978,-70.0734
4253,LIVERMORE,ME,44.4079,-70.215
4254,LIVERMORE FALLS,ME,44.4325,-70.1427
4255,GREENWOOD,ME,44.3184,-70.6509
4256,MECHANIC FALLS,ME,44.1117,-70.3917
4257,MEXICO,ME,44.5628,-70.5358
4258,MINOT,ME,44.1461,-70.3399
4259,MONMOUTH,ME,44.2208,-70.0263
4260,NEW GLOUCESTER,ME,43.9608,-70.2974
4261,NEWRY,ME,44.6895,-71.0112
4262,NORTH JAY,ME,44.5473,-70.2381
4263,LEEDS,ME,44.2834,-70.1253
4265,NORTH MONMOUTH,ME,44.2753,-70.0367
4266,NORTH TURNER,ME,44.358,-70.2558
4267,NORTH WATERFORD,ME,44.2317,-70.7687
4268,NORWAY,ME,44.2127,-70.5601
4270,OXFORD,ME,44.1118,-70.5098
4271,PARIS,ME,44.2641,-70.4985
4274,POLAND,ME,44.0474,-70.3899
4275,ROXBURY,ME,44.6566,-70.6092
4276,RUMFORD,ME,44.5434,-70.5645
4280,SABATTUS,ME,44.1133,-70.0748
4281,SOUTH PARIS,ME,44.2167,-70.5012
4282,TURNER,ME,44.2557,-70.2494
4284,WAYNE,ME,44.3493,-70.0712
4285,WELD,ME,44.7016,-70.4249
4286,WEST BETHEL,ME,44.4021,-70.8601
4287,BOWDOIN,ME,44.0575,-69.9656
4288,WEST MINOT,ME,44.1712,-70.3659
4289,WEST PARIS,ME,44.3253,-70.5732
4290,PERU,ME,44.4944,-70.4435
4291,WEST POLAND,ME,44.0409,-70.453
4292,SUMNER,ME,44.374,-70.4469
4294,WILTON,ME,44.5928,-70.2281
4330,AUGUSTA,ME,44.3232,-69.7665
4332,AUGUSTA,ME,44.4141,-69.7519
4333,AUGUSTA,ME,44.3106,-69.7795
4336,AUGUSTA,ME,44.3157,-69.818
4338,AUGUSTA,ME,44.3106,-69.7795
4341,COOPERS MILLS,ME,44.2588,-69.551
4342,DRESDEN,ME,44.0785,-69.7457
4343,EAST WINTHROP,ME,44.4141,-69.7519
4344,FARMINGDALE,ME,44.2523,-69.7913
4345,GARDINER,ME,44.207,-69.7858
4346,RANDOLPH,ME,44.2347,-69.7506
4347,HALLOWELL,ME,44.2864,-69.8057
4348,JEFFERSON,ME,44.2204,-69.5133
4349,KENTS HILL,ME,44.4383,-70.0748
4350,LITCHFIELD,ME,44.1634,-69.9581
4351,MANCHESTER,ME,44.358,-69.867
4352,MOUNT VERNON,ME,44.4993,-69.9903
4353,WHITEFIELD,ME,44.1884,-69.5751
4354,PALERMO,ME,44.3843,-69.4334
4355,READFIELD,ME,44.4032,-69.9506
4357,RICHMOND,ME,44.1042,-69.8211
4358,SOUTH CHINA,ME,44.3953,-69.5804
4359,SOUTH GARDINER,ME,44.1801,-69.7567
4360,VIENNA,ME,44.5475,-70.003
4363,WINDSOR,ME,44.3009,-69.5806
4364,WINTHROP,ME,44.3229,-69.9576
4401,BANGOR,ME,44.8242,-68.7918
4402,BANGOR,ME,44.8012,-68.7778
4406,ABBOT,ME,45.2345,-69.5699
4408,AURORA,ME,44.8861,-68.2959
4410,BRADFORD,ME,45.0855,-68.9235
4411,BRADLEY,ME,44.9015,-68.6263
4412,BREWER,ME,44.7874,-68.7539
4413,BROOKTON,ME,45.5507,-67.7436
4414,BROWNVILLE,ME,45.3412,-69.0423
4415,BROWNVILLE JUNCTION,ME,45.3512,-69.0581
4416,BUCKSPORT,ME,44.6015,-68.7768
4417,BURLINGTON,ME,45.2349,-68.379
4418,GREENBUSH,ME,45.0803,-68.6509
4419,CARMEL,ME,44.8053,-68.9942
4420,CASTINE,ME,44.413,-68.798
4421,CASTINE,ME,44.4156,-68.7929
4422,CHARLESTON,ME,45.067,-69.0869
4424,DANFORTH,ME,45.6687,-67.8688
4426,DOVER FOXCROFT,ME,45.1877,-69.2045
4427,CORINTH,ME,44.9805,-69.0109
4428,EDDINGTON,ME,44.7917,-68.5777
4429,HOLDEN,ME,44.7208,-68.6165
4430,EAST MILLINOCKET,ME,45.63,-68.5728
4431,EAST ORLAND,ME,44.5612,-68.6647
4434,ETNA,ME,44.7932,-69.1322
4435,EXETER,ME,44.9679,-69.1079
4438,FRANKFORT,ME,44.5979,-68.934
4441,GREENVILLE,ME,45.4716,-69.5844
4442,GREENVILLE JUNCTION,ME,45.4796,-69.6939
4443,GUILFORD,ME,45.1735,-69.3975
4444,HAMPDEN,ME,44.7411,-68.8731
4448,HOWLAND,ME,45.2456,-68.6666
4449,HUDSON,ME,44.9914,-68.8878
4450,KENDUSKEAG,ME,44.9183,-68.9342
4451,KINGMAN,ME,45.5984,-68.2366
4453,LAGRANGE,ME,45.1789,-68.8345
4454,LAMBERT LAKE,ME,45.5459,-67.5269
4455,LEE,ME,45.3635,-68.2909
4456,LEVANT,ME,44.8843,-68.9837
4457,LINCOLN,ME,45.3508,-68.5077
4459,MATTAWAMKEAG,ME,45.5264,-68.352
4460,MEDWAY,ME,45.607,-68.5227
4461,MILFORD,ME,44.9393,-68.6296
4462,MILLINOCKET,ME,45.6596,-68.7101
4463,MILO,ME,45.2446,-68.976
4464,MONSON,ME,45.2981,-69.488
4468,OLD TOWN,ME,44.943,-68.675
4469,ORONO,ME,45.0028,-68.6334
4471,ORIENT,ME,45.8911,-67.8471
4472,ORLAND,ME,44.5458,-68.7313
4473,ORONO,ME,44.8865,-68.7172
4474,ORRINGTON,ME,44.7263,-68.7876
4475,PASSADUMKEAG,ME,45.1815,-68.5871
4476,PENOBSCOT,ME,44.4645,-68.7111
4478,ROCKWOOD,ME,45.8641,-69.8768
4479,SANGERVILLE,ME,45.1406,-69.3218
4481,SEBEC,ME,45.2465,-69.1021
4485,SHIRLEY MILLS,ME,45.3609,-69.6202
4487,SPRINGFIELD,ME,45.4264,-68.1108
4488,STETSON,ME,44.8843,-69.1069
4489,STILLWATER,ME,44.9224,-68.6868
4490,TOPSFIELD,ME,45.4304,-67.7473
4491,VANCEBORO,ME,45.5634,-67.4297
4492,WAITE,ME,45.3492,-67.678
4493,WEST ENFIELD,ME,45.2378,-68.5338
4495,WINN,ME,45.4568,-68.3575
4496,WINTERPORT,ME,44.6552,-68.8862
4497,WYTOPITLOCK,ME,45.6645,-68.1055
4530,BATH,ME,43.9062,-69.8266
4535,ALNA,ME,44.0878,-69.6344
4537,BOOTHBAY,ME,43.8945,-69.6273
4538,BOOTHBAY HARBOR,ME,43.8518,-69.6278
4539,BRISTOL,ME,43.9519,-69.4954
4541,CHAMBERLAIN,ME,43.8843,-69.4792
4543,DAMARISCOTTA,ME,44.0293,-69.5042
4544,EAST BOOTHBAY,ME,43.8262,-69.5939
4547,FRIENDSHIP,ME,43.9807,-69.3349
4548,GEORGETOWN,ME,43.8054,-69.7453
4549,ISLE OF SPRINGS,ME,44.0213,-69.5233
4551,BREMEN,ME,44.0104,-69.4402
4553,NEWCASTLE,ME,44.0499,-69.5331
4554,NEW HARBOR,ME,43.8605,-69.5079
4555,NOBLEBORO,ME,44.0943,-69.4828
4556,EDGECOMB,ME,43.9792,-69.6197
4558,PEMAQUID,ME,43.8924,-69.5289
4562,PHIPPSBURG,ME,43.7688,-69.815
4563,CUSHING,ME,43.9867,-69.2721
4564,ROUND POND,ME,43.925,-69.4662
4565,SEBASCO ESTATES,ME,43.7733,-69.8635
4568,SOUTH BRISTOL,ME,43.8677,-69.5614
4570,SQUIRREL ISLAND,ME,44.0213,-69.5233
4571,TREVETT,ME,43.8826,-69.6801
4572,WALDOBORO,ME,44.1046,-69.3745
4573,WALPOLE,ME,43.9462,-69.5516
4574,WASHINGTON,ME,44.2693,-69.3842
4575,WEST BOOTHBAY HARBOR,ME,43.8545,-69.6608
4576,SOUTHPORT,ME,43.8199,-69.6626
4578,WISCASSET,ME,44.0074,-69.6826
4579,WOOLWICH,ME,43.9503,-69.7891
4605,ELLSWORTH,ME,44.5548,-68.4121
4606,ADDISON,ME,44.583,-67.7146
4607,GOULDSBORO,ME,44.4731,-68.0899
4609,BAR HARBOR,ME,44.3738,-68.2448
4611,BEALS,ME,44.513,-67.6056
4612,BERNARD,ME,44.2415,-68.358
4613,BIRCH HARBOR,ME,44.3842,-68.0317
4614,BLUE HILL,ME,44.4343,-68.5885
4616,BROOKLIN,ME,44.2541,-68.5565
4617,BROOKSVILLE,ME,44.3756,-68.7313
4619,CALAIS,ME,45.1715,-67.2641
4622,CHERRYFIELD,ME,44.6228,-67.9436
4623,COLUMBIA FALLS,ME,44.6699,-67.7534
4624,COREA,ME,44.4053,-67.985
4625,CRANBERRY ISLES,ME,44.2484,-68.2603
4626,CUTLER,ME,44.6753,-67.2499
4627,DEER ISLE,ME,44.234,-68.6448
4628,DENNYSVILLE,ME,44.8961,-67.2244
4629,EAST BLUE HILL,ME,44.4176,-68.5225
4630,EAST MACHIAS,ME,44.7424,-67.3821
4631,EASTPORT,ME,44.92,-67.0074
4634,FRANKLIN,ME,44.6087,-68.2417
4635,FRENCHBORO,ME,44.1181,-68.3625
4637,GRAND LAKE STREAM,ME,45.1795,-67.7744
4640,HANCOCK,ME,44.5046,-68.2402
4642,HARBORSIDE,ME,44.334,-68.8042
4643,HARRINGTON,ME,44.6122,-67.8147
4644,HULLS COVE,ME,44.6419,-68.3915
4645,ISLE AU HAUT,ME,44.0561,-68.6206
4646,ISLESFORD,ME,44.262,-68.2339
4648,JONESBORO,ME,44.6582,-67.5777
4649,JONESPORT,ME,44.5509,-67.6044
4650,LITTLE DEER ISLE,ME,44.2847,-68.7058
4652,LUBEC,ME,44.9043,-67.0408
4653,BASS HARBOR,ME,44.2401,-68.3439
4654,MACHIAS,ME,44.7215,-67.482
4655,MACHIASPORT,ME,44.682,-67.4073
4657,MEDDYBEMPS,ME,45.0193,-67.3829
4658,MILBRIDGE,ME,44.5366,-67.8844
4660,MOUNT DESERT,ME,44.3347,-68.3087
4662,NORTHEAST HARBOR,ME,44.2941,-68.2849
4664,SULLIVAN,ME,44.5458,-68.1279
4666,PEMBROKE,ME,44.9654,-67.2002
4667,PERRY,ME,44.9888,-67.0929
4668,PRINCETON,ME,45.2131,-67.6008
4669,PROSPECT HARBOR,ME,44.411,-68.0141
4671,ROBBINSTON,ME,45.067,-67.1433
4672,SALSBURY COVE,ME,44.4306,-68.2836
4673,SARGENTVILLE,ME,44.3136,-68.6863
4674,SEAL COVE,ME,44.2859,-68.3986
4675,SEAL HARBOR,ME,44.299,-68.2463
4676,SEDGWICK,ME,44.3355,-68.6377
4677,SORRENTO,ME,44.4907,-68.1787
4679,SOUTHWEST HARBOR,ME,44.2823,-68.3265
4680,STEUBEN,ME,44.4971,-67.9503
4681,STONINGTON,ME,44.1752,-68.6746
4683,SUNSET,ME,44.2059,-68.7047
4684,SURRY,ME,44.4883,-68.5063
4685,SWANS ISLAND,ME,44.1451,-68.4517
4686,WESLEY,ME,44.9854,-67.6991
4691,WHITING,ME,44.7622,-67.2515
4693,WINTER HARBOR,ME,44.39,-68.0843
4694,BAILEYVILLE,ME,45.1035,-67.4722
4730,HOULTON,ME,46.1189,-67.863
4732,ASHLAND,ME,46.6184,-68.3876
4733,BENEDICTA,ME,45.8125,-68.4089
4734,BLAINE,ME,46.5048,-67.8686
4735,BRIDGEWATER,ME,46.4222,-67.8415
4736,CARIBOU,ME,46.8706,-68.0204
4737,CLAYTON LAKE,ME,46.6109,-69.5223
4738,CROUSEVILLE,ME,46.755,-68.0964
4739,EAGLE LAKE,ME,47.01,-68.691
4740,EASTON,ME,46.6357,-67.9018
4741,ESTCOURT STATION,ME,47.4589,-69.2243
4742,FORT FAIRFIELD,ME,46.7623,-67.8402
4743,FORT KENT,ME,47.2587,-68.5895
4744,FORT KENT MILLS,ME,47.2389,-68.5839
4745,FRENCHVILLE,ME,47.2826,-68.3917
4746,GRAND ISLE,ME,47.3044,-68.1542
4747,ISLAND FALLS,ME,46.0169,-68.2667
4750,LIMESTONE,ME,46.9248,-67.8451
4751,LIMESTONE,ME,46.8929,-67.9643
4756,MADAWASKA,ME,47.3294,-68.3328
4757,MAPLETON,ME,46.6746,-68.1536
4758,MARS HILL,ME,46.5223,-67.863
4760,MONTICELLO,ME,46.3007,-67.8414
4761,NEW LIMERICK,ME,46.1004,-68.0034
4762,NEW SWEDEN,ME,46.9559,-68.1154
4763,OAKFIELD,ME,46.1088,-68.1298
4764,OXBOW,ME,46.402,-68.5218
4765,PATTEN,ME,46.0132,-68.4647
4766,PERHAM,ME,46.8816,-68.2391
4768,PORTAGE,ME,46.7753,-68.4877
4769,PRESQUE ISLE,ME,46.6842,-68.0118
4772,SAINT AGATHA,ME,47.2387,-68.3232
4773,SAINT DAVID,ME,47.3343,-68.2314
4774,SAINT FRANCIS,ME,47.1407,-68.9503
4775,SHERIDAN,ME,46.6573,-68.405
4776,SHERMAN,ME,45.8731,-68.3847
4777,STACYVILLE,ME,45.8637,-68.5053
4779,SINCLAIR,ME,47.1222,-68.323
4780,SMYRNA MILLS,ME,46.1464,-68.2064
4781,WALLAGRASS,ME,47.1295,-68.5973
4783,STOCKHOLM,ME,47.0423,-68.1395
4785,VAN BUREN,ME,47.1589,-67.9459
4786,WASHBURN,ME,46.7883,-68.1338
4787,WESTFIELD,ME,46.5945,-67.9302
4841,ROCKLAND,ME,44.1123,-69.1139
4843,CAMDEN,ME,44.2137,-69.0767
4847,HOPE,ME,44.2589,-69.1467
4848,ISLESBORO,ME,44.3082,-68.9073
4849,LINCOLNVILLE,ME,44.3048,-69.0824
4850,LINCOLNVILLE CENTER,ME,44.2979,-69.1075
4851,MATINICUS,ME,43.8651,-68.887
4852,MONHEGAN,ME,43.7642,-69.3164
4853,NORTH HAVEN,ME,44.1436,-68.8667
4854,OWLS HEAD,ME,44.0732,-69.0894
4855,PORT CLYDE,ME,43.9273,-69.2528
4856,ROCKPORT,ME,44.1888,-69.0901
4858,SOUTH THOMASTON,ME,44.0378,-69.1359
4859,SPRUCE HEAD,ME,44.0104,-69.1707
4860,TENANTS HARBOR,ME,43.9555,-69.2315
4861,THOMASTON,ME,44.0846,-69.1888
4862,UNION,ME,44.2619,-69.2771
4863,VINALHAVEN,ME,44.0397,-68.8368
4864,WARREN,ME,44.1271,-69.2479
4865,WEST ROCKPORT,ME,44.1924,-69.1211
4901,WATERVILLE,ME,44.5543,-69.6178
4903,WATERVILLE,ME,44.5492,-69.7132
4910,ALBION,ME,44.5355,-69.4683
4911,ANSON,ME,44.7831,-69.9309
4912,ATHENS,ME,44.9388,-69.6695
4915,BELFAST,ME,44.4354,-69.0148
4917,BELGRADE,ME,44.4688,-69.8606
4918,BELGRADE LAKES,ME,44.5265,-69.887
4920,BINGHAM,ME,45.0682,-69.8857
4921,BROOKS,ME,44.5678,-69.1404
4922,BURNHAM,ME,44.6848,-69.38
4923,CAMBRIDGE,ME,45.0513,-69.4419
4924,CANAAN,ME,44.745,-69.5498
4925,CARATUNK,ME,45.241,-69.9386
4926,CHINA VILLAGE,ME,44.8526,-69.502
4927,CLINTON,ME,44.644,-69.5284
4928,CORINNA,ME,44.926,-69.2323
4929,DETROIT,ME,44.7615,-69.3227
4930,DEXTER,ME,45.0203,-69.2797
4932,DIXMONT,ME,44.6991,-69.1025
4933,EAST NEWPORT,ME,44.8209,-69.2225
4935,EAST VASSALBORO,ME,44.4478,-69.6059
4936,EUSTIS,ME,45.3356,-70.6283
4937,FAIRFIELD,ME,44.6463,-69.6802
4938,FARMINGTON,ME,44.6653,-70.1329
4939,GARLAND,ME,45.0149,-69.157
4940,FARMINGTON FALLS,ME,44.6226,-70.0752
4941,FREEDOM,ME,44.4633,-69.319
4942,HARMONY,ME,44.973,-69.5481
4943,HARTLAND,ME,44.8782,-69.4718
4944,HINCKLEY,ME,44.6847,-69.6425
4945,JACKMAN,ME,45.6351,-70.2492
4947,KINGFIELD,ME,44.9854,-70.1832
4949,LIBERTY,ME,44.3741,-69.3306
4950,MADISON,ME,44.8096,-69.8449
4951,MONROE,ME,44.5927,-69.0317
4952,MORRILL,ME,44.4107,-69.1471
4953,NEWPORT,ME,44.8393,-69.2675
4954,NEW PORTLAND,ME,44.8842,-70.0967
4955,NEW SHARON,ME,44.6458,-70.0139
4956,NEW VINEYARD,ME,44.7967,-70.122
4957,NORRIDGEWOCK,ME,44.6899,-69.8306
4958,NORTH ANSON,ME,44.8797,-69.9119
4961,NEW PORTLAND,ME,44.9251,-70.0231
4962,NORTH VASSALBORO,ME,44.4862,-69.6225
4963,OAKLAND,ME,44.5173,-69.7401
4964,OQUOSSOC,ME,44.9664,-70.7737
4965,PALMYRA,ME,44.8576,-69.3811
4966,PHILLIPS,ME,44.8375,-70.3601
4967,PITTSFIELD,ME,44.7871,-69.4022
4969,PLYMOUTH,ME,44.7699,-69.2266
4970,RANGELEY,ME,44.9631,-70.6658
4971,SAINT ALBANS,ME,44.9293,-69.3992
4972,SANDY POINT,ME,44.5148,-68.8128
4973,SEARSMONT,ME,44.377,-69.2196
4974,SEARSPORT,ME,44.4877,-68.9311
4975,SHAWMUT,ME,44.6245,-69.5869
4976,SKOWHEGAN,ME,44.7772,-69.6976
4978,SMITHFIELD,ME,44.6301,-69.8075
4979,SOLON,ME,44.9676,-69.833
4981,STOCKTON SPRINGS,ME,44.5141,-68.856
4982,STRATTON,ME,45.1116,-70.423
4983,STRONG,ME,44.8224,-70.2221
4984,TEMPLE,ME,44.6954,-70.2426
4985,WEST FORKS,ME,45.3839,-69.9841
4986,THORNDIKE,ME,44.5744,-69.2487
4987,TROY,ME,44.6757,-69.2549
4988,UNITY,ME,44.6007,-69.3328
4989,VASSALBORO,ME,44.4405,-69.6519
4992,WEST FARMINGTON,ME,44.6628,-70.153
5001,WHITE RIVER JUNCTION,VT,43.6722,-72.3813
5009,WHITE RIVER JUNCTION,VT,43.649,-72.3193
5030,ASCUTNEY,VT,43.4107,-72.4298
5031,BARNARD,VT,43.7287,-72.619
5032,BETHEL,VT,43.8195,-72.6528
5033,BRADFORD,VT,44.0006,-72.1406
5034,BRIDGEWATER,VT,43.5804,-72.6467
5035,BRIDGEWATER CORNERS,VT,43.5998,-72.6752
5036,BROOKFIELD,VT,44.0321,-72.5953
5037,BROWNSVILLE,VT,43.4646,-72.4944
5038,CHELSEA,VT,44.0039,-72.4793
5039,CORINTH,VT,44.0325,-72.2822
5040,EAST CORINTH,VT,44.0619,-72.2151
5041,EAST RANDOLPH,VT,43.9553,-72.5487
5042,EAST RYEGATE,VT,44.2275,-72.0996
5043,EAST THETFORD,VT,43.8073,-72.2147
5045,FAIRLEE,VT,43.901,-72.1902
5046,GROTON,VT,44.2204,-72.2175
5047,HARTFORD,VT,43.6721,-72.3555
5048,HARTLAND,VT,43.5708,-72.4131
5049,HARTLAND FOUR CORNERS,VT,43.5465,-72.4245
5050,MC INDOE FALLS,VT,44.4624,-72.1358
5051,NEWBURY,VT,44.0683,-72.1187
5052,NORTH HARTLAND,VT,43.5967,-72.3526
5053,NORTH POMFRET,VT,43.7204,-72.4943
5054,NORTH THETFORD,VT,43.8431,-72.1856
5055,NORWICH,VT,43.7404,-72.3016
5056,PLYMOUTH,VT,43.4987,-72.7107
5058,POST MILLS,VT,43.8858,-72.27
5059,QUECHEE,VT,43.6641,-72.4331
5060,RANDOLPH,VT,43.9444,-72.6726
5061,RANDOLPH CENTER,VT,43.9379,-72.597
5062,READING,VT,43.4793,-72.5704
5065,SHARON,VT,43.7748,-72.4243
5067,SOUTH POMFRET,VT,43.6797,-72.5349
5068,SOUTH ROYALTON,VT,43.8089,-72.5232
5069,SOUTH RYEGATE,VT,44.1978,-72.1104
5070,SOUTH STRAFFORD,VT,43.8282,-72.37
5071,SOUTH WOODSTOCK,VT,43.5601,-72.5384
5072,STRAFFORD,VT,43.8723,-72.3636
5073,TAFTSVILLE,VT,43.6309,-72.4891
5074,THETFORD,VT,43.996,-72.4114
5075,THETFORD CENTER,VT,43.8149,-72.2662
5076,TOPSHAM,VT,43.7982,-72.4008
5077,TUNBRIDGE,VT,43.9169,-72.4786
5079,VERSHIRE,VT,43.9618,-72.319
5081,WELLS RIVER,VT,44.1524,-72.053
5083,WEST FAIRLEE,VT,43.9189,-72.2681
5084,WEST HARTFORD,VT,43.7185,-72.4439
5085,WEST NEWBURY,VT,44.0645,-72.1248
5086,WEST TOPSHAM,VT,44.1199,-72.2701
5088,WILDER,VT,43.6735,-72.312
5089,WINDSOR,VT,43.476,-72.411
5091,WOODSTOCK,VT,43.6248,-72.5385
5101,BELLOWS FALLS,VT,43.1482,-72.4664
5141,CAMBRIDGEPORT,VT,43.1515,-72.5604
5142,CAVENDISH,VT,43.3766,-72.6092
5143,CHESTER,VT,43.2831,-72.6031
5146,GRAFTON,VT,43.1601,-72.5972
5148,LONDONDERRY,VT,43.2281,-72.788
5149,LUDLOW,VT,43.3929,-72.7002
5150,NORTH SPRINGFIELD,VT,43.338,-72.5277
5151,PERKINSVILLE,VT,43.3879,-72.5038
5152,PERU,VT,43.2565,-72.8868
5153,PROCTORSVILLE,VT,43.3823,-72.6384
5154,SAXTONS RIVER,VT,43.1379,-72.5098
5155,SOUTH LONDONDERRY,VT,43.1699,-72.8515
5156,SPRINGFIELD,VT,43.3034,-72.4778
5158,WESTMINSTER,VT,43.0826,-72.4749
5159,WESTMINSTER STATION,VT,43.094,-72.4565
5161,WESTON,VT,43.2941,-72.7935
5201,BENNINGTON,VT,42.8827,-73.1923
5250,ARLINGTON,VT,43.0857,-73.1594
5251,DORSET,VT,43.2636,-73.0766
5252,EAST ARLINGTON,VT,43.0668,-73.0611
5253,EAST DORSET,VT,43.237,-73.0081
5254,MANCHESTER,VT,43.1637,-73.0723
5255,MANCHESTER CENTER,VT,43.1693,-73.0474
5257,NORTH BENNINGTON,VT,42.9304,-73.2426
5260,NORTH POWNAL,VT,42.8098,-73.2534
5261,POWNAL,VT,42.788,-73.2162
5262,SHAFTSBURY,VT,42.9614,-73.2166
5301,BRATTLEBORO,VT,42.8574,-72.5933
5302,BRATTLEBORO,VT,42.8509,-72.5579
5303,BRATTLEBORO,VT,42.8509,-72.5579
5304,BRATTLEBORO,VT,42.8509,-72.5579
5340,BONDVILLE,VT,43.1618,-72.9128
5341,EAST DOVER,VT,42.9505,-72.783
5342,JACKSONVILLE,VT,42.7778,-72.8071
5343,JAMAICA,VT,43.1042,-72.7944
5344,MARLBORO,VT,42.9947,-72.7204
5345,NEWFANE,VT,42.9704,-72.6781
5346,PUTNEY,VT,43.0356,-72.5123
5350,READSBORO,VT,42.7837,-72.9609
5351,SOUTH NEWFANE,VT,42.9391,-72.7292
5352,STAMFORD,VT,42.7562,-73.0679
5353,TOWNSHEND,VT,43.0622,-72.6687
5354,VERNON,VT,42.7565,-72.5115
5355,WARDSBORO,VT,43.0326,-72.8077
5356,WEST DOVER,VT,42.9535,-72.8687
5357,WEST DUMMERSTON,VT,42.9265,-72.6154
5358,WEST HALIFAX,VT,42.7761,-72.7501
5359,WEST TOWNSHEND,VT,43.13,-72.721
5360,WEST WARDSBORO,VT,43.0472,-72.8805
5361,WHITINGHAM,VT,42.7892,-72.8851
5362,WILLIAMSVILLE,VT,42.9364,-72.6611
5363,WILMINGTON,VT,42.8812,-72.8613
5401,BURLINGTON,VT,44.484,-73.2199
5402,BURLINGTON,VT,44.4421,-73.0825
5403,SOUTH BURLINGTON,VT,44.4513,-73.1796
5404,WINOOSKI,VT,44.4949,-73.1874
5405,BURLINGTON,VT,44.4421,-73.0825
5406,BURLINGTON,VT,44.4421,-73.0825
5407,SOUTH BURLINGTON,VT,44.4421,-73.0825
5408,BURLINGTON,VT,44.512,-73.2492
5439,COLCHESTER,VT,44.4952,-73.1651
5440,ALBURGH,VT,44.6031,-72.9527
5441,BAKERSFIELD,VT,44.7914,-72.7697
5442,BELVIDERE CENTER,VT,44.7248,-72.7016
5443,BRISTOL,VT,44.146,-73.0717
5444,CAMBRIDGE,VT,44.6222,-72.8812
5445,CHARLOTTE,VT,44.3113,-73.228
5446,COLCHESTER,VT,44.536,-73.2022
5447,EAST BERKSHIRE,VT,44.931,-72.7028
5448,EAST FAIRFIELD,VT,44.7412,-72.8827
5449,COLCHESTER,VT,44.5439,-73.1479
5450,ENOSBURG FALLS,VT,44.8985,-72.791
5451,ESSEX,VT,44.5084,-73.0503
5452,ESSEX JUNCTION,VT,44.5035,-73.0906
5453,ESSEX JUNCTION,VT,44.4421,-73.0825
5454,FAIRFAX,VT,44.6924,-73.0241
5455,FAIRFIELD,VT,44.7841,-73.0222
5456,FERRISBURGH,VT,44.2056,-73.2462
5457,FRANKLIN,VT,44.9614,-72.9037
5458,GRAND ISLE,VT,44.7197,-73.3056
5459,HIGHGATE CENTER,VT,44.9404,-73.0155
5460,HIGHGATE SPRINGS,VT,44.9748,-73.1052
5461,HINESBURG,VT,44.3346,-73.098
5462,HUNTINGTON,VT,44.3227,-72.9964
5463,ISLE LA MOTTE,VT,44.8781,-73.3386
5464,JEFFERSONVILLE,VT,44.6388,-72.822
5465,JERICHO,VT,44.459,-72.9552
5466,JONESVILLE,VT,44.3839,-72.9376
5468,MILTON,VT,44.6483,-73.1317
5469,MONKTON,VT,44.2404,-73.1347
5470,MONTGOMERY,VT,44.9025,-72.6382
5471,MONTGOMERY CENTER,VT,44.8781,-72.6023
5472,NEW HAVEN,VT,44.1126,-73.1735
5473,NORTH FERRISBURGH,VT,44.2595,-73.2112
5474,NORTH HERO,VT,44.8353,-73.2778
5476,RICHFORD,VT,44.9715,-72.6905
5477,RICHMOND,VT,44.3873,-72.9533
5478,SAINT ALBANS,VT,44.8111,-73.089
5479,SAINT ALBANS,VT,44.8109,-73.0832
5481,SAINT ALBANS BAY,VT,44.8078,-73.1393
5482,SHELBURNE,VT,44.39,-73.2171
5483,SHELDON,VT,44.8872,-72.953
5485,SHELDON SPRINGS,VT,44.9056,-72.9632
5486,SOUTH HERO,VT,44.64,-73.3113
5487,STARKSBORO,VT,44.2261,-73.0157
5488,SWANTON,VT,44.9168,-73.1211
5489,UNDERHILL,VT,44.5391,-72.9258
5490,UNDERHILL CENTER,VT,44.5047,-72.8853
5491,VERGENNES,VT,44.1326,-73.2793
5492,WATERVILLE,VT,44.7124,-72.7596
5494,WESTFORD,VT,44.6182,-73.006
5495,WILLISTON,VT,44.4367,-73.0957
5501,ANDOVER,MA,42.6472,-71.1842
5544,ANDOVER,MA,42.6472,-71.1842
5601,MONTPELIER,VT,44.1991,-72.5596
5602,MONTPELIER,VT,44.2641,-72.577
5603,MONTPELIER,VT,44.2601,-72.5754
5604,MONTPELIER,VT,44.2595,-72.585
5609,MONTPELIER,VT,44.2595,-72.585
5620,MONTPELIER,VT,44.2595,-72.585
5633,MONTPELIER,VT,44.2595,-72.585
5640,ADAMANT,VT,44.3575,-72.5046
5641,BARRE,VT,44.1945,-72.4936
5647,CABOT,VT,44.4042,-72.3064
5648,CALAIS,VT,44.3934,-72.4741
5649,EAST BARRE,VT,44.1576,-72.4533
5650,EAST CALAIS,VT,44.38,-72.4419
5651,EAST MONTPELIER,VT,44.2828,-72.4926
5652,EDEN,VT,44.7343,-72.5863
5653,EDEN MILLS,VT,44.6931,-72.5134
5654,GRANITEVILLE,VT,44.1512,-72.4929
5655,HYDE PARK,VT,44.6225,-72.595
5656,JOHNSON,VT,44.642,-72.6712
5657,LAKE ELMORE,VT,44.5999,-72.6475
5658,MARSHFIELD,VT,44.3509,-72.354
5660,MORETOWN,VT,44.2596,-72.7494
5661,MORRISVILLE,VT,44.5543,-72.6026
5662,MOSCOW,VT,44.442,-72.7188
5663,NORTHFIELD,VT,44.1512,-72.6565
5664,NORTHFIELD FALLS,VT,44.1835,-72.6466
5665,NORTH HYDE PARK,VT,44.6731,-72.5971
5666,NORTH MONTPELIER,VT,44.2595,-72.585
5667,PLAINFIELD,VT,44.2622,-72.4224
5669,ROXBURY,VT,44.0846,-72.7202
5670,SOUTH BARRE,VT,44.1757,-72.5025
5671,WATERBURY,VT,44.3378,-72.7562
5672,STOWE,VT,44.4695,-72.6923
5673,WAITSFIELD,VT,44.1889,-72.8283
5674,WARREN,VT,44.111,-72.8609
5675,WASHINGTON,VT,44.0782,-72.4263
5676,WATERBURY,VT,44.3451,-72.7798
5677,WATERBURY CENTER,VT,44.3828,-72.708
5678,WEBSTERVILLE,VT,44.1558,-72.4658
5679,WILLIAMSTOWN,VT,44.1182,-72.5381
5680,WOLCOTT,VT,44.5558,-72.4844
5681,WOODBURY,VT,44.4548,-72.4036
5682,WORCESTER,VT,44.3944,-72.5609
5701,RUTLAND,VT,43.6141,-72.9708
5702,RUTLAND,VT,43.6106,-72.9726
5730,BELMONT,VT,43.4284,-72.8257
5731,BENSON,VT,43.6877,-73.2919
5732,BOMOSEEN,VT,43.6437,-73.2094
5733,BRANDON,VT,43.8065,-73.0882
5734,BRIDPORT,VT,43.9538,-73.3476
5735,CASTLETON,VT,43.6223,-73.1708
5736,CENTER RUTLAND,VT,43.6023,-73.017
5737,CHITTENDEN,VT,43.7132,-72.9252
5738,CUTTINGSVILLE,VT,43.5221,-72.8691
5739,DANBY,VT,43.3583,-73.0129
5740,EAST MIDDLEBURY,VT,43.9715,-73.0914
5741,EAST POULTNEY,VT,43.5265,-73.2046
5742,EAST WALLINGFORD,VT,43.4461,-72.8844
5743,FAIR HAVEN,VT,43.6234,-73.2701
5744,FLORENCE,VT,43.7093,-73.079
5745,FOREST DALE,VT,43.8278,-73.0537
5746,GAYSVILLE,VT,43.7784,-72.699
5747,GRANVILLE,VT,43.9849,-72.8245
5748,HANCOCK,VT,43.9125,-72.9133
5750,HYDEVILLE,VT,43.5994,-73.251
5751,KILLINGTON,VT,43.6634,-72.7963
5753,MIDDLEBURY,VT,43.9919,-73.1716
5757,MIDDLETOWN SPRINGS,VT,43.4856,-73.1182
5758,MOUNT HOLLY,VT,43.4487,-72.7956
5759,NORTH CLARENDON,VT,43.5522,-72.9561
5760,ORWELL,VT,43.7837,-73.2949
5761,PAWLET,VT,43.3587,-73.1444
5762,PITTSFIELD,VT,43.7723,-72.8129
5763,PITTSFORD,VT,43.7152,-73.0135
5764,POULTNEY,VT,43.5332,-73.2253
5765,PROCTOR,VT,43.658,-73.0348
5766,RIPTON,VT,43.9929,-73.0187
5767,ROCHESTER,VT,43.8804,-72.8159
5768,RUPERT,VT,43.2598,-73.2229
5769,SALISBURY,VT,43.9017,-73.1008
5770,SHOREHAM,VT,43.8862,-73.3054
5772,STOCKBRIDGE,VT,43.7738,-72.7814
5773,WALLINGFORD,VT,43.4573,-72.9877
5774,WELLS,VT,43.4305,-73.2027
5775,WEST PAWLET,VT,43.3667,-73.2313
5776,WEST RUPERT,VT,43.2636,-73.1905
5777,WEST RUTLAND,VT,43.5781,-73.0424
5778,WHITING,VT,43.894,-73.203
5819,SAINT JOHNSBURY,VT,44.4272,-72.0051
5820,ALBANY,VT,44.7417,-72.3646
5821,BARNET,VT,44.3179,-72.0783
5822,BARTON,VT,44.7395,-72.16
5823,BEEBE PLAIN,VT,45.0058,-72.1383
5824,CONCORD,VT,44.4461,-71.8676
5825,COVENTRY,VT,44.8656,-72.2648
5826,CRAFTSBURY,VT,44.6434,-72.366
5827,CRAFTSBURY COMMON,VT,44.6788,-72.3594
5828,DANVILLE,VT,44.4332,-72.1133
5829,DERBY,VT,44.9502,-72.1376
5830,DERBY LINE,VT,44.9902,-72.0824
5832,EAST BURKE,VT,44.6078,-71.9357
5833,EAST CHARLESTON,VT,44.8299,-71.9763
5836,EAST HARDWICK,VT,44.5288,-72.3034
5837,EAST HAVEN,VT,44.6517,-71.8675
5838,EAST SAINT JOHNSBURY,VT,44.4387,-71.9456
5839,GLOVER,VT,44.6747,-72.2131
5840,GRANBY,VT,44.6808,-71.7194
5841,GREENSBORO,VT,44.5951,-72.285
5842,GREENSBORO BEND,VT,44.5489,-72.2648
5843,HARDWICK,VT,44.507,-72.3638
5845,IRASBURG,VT,44.8081,-72.2763
5846,ISLAND POND,VT,44.8095,-71.884
5847,LOWELL,VT,44.7961,-72.4501
5848,LOWER WATERFORD,VT,44.3821,-71.9195
5849,LYNDON,VT,44.4976,-71.9505
5850,LYNDON CENTER,VT,44.5416,-72.0175
5851,LYNDONVILLE,VT,44.5555,-72.0715
5853,MORGAN,VT,44.8787,-71.9714
5855,NEWPORT,VT,44.9393,-72.2065
5857,NEWPORT CENTER,VT,44.9442,-72.2974
5858,NORTH CONCORD,VT,44.5501,-71.7867
5859,NORTH TROY,VT,44.9378,-72.4334
5860,ORLEANS,VT,44.8238,-72.102
5861,PASSUMPSIC,VT,44.3767,-72.0276
5862,PEACHAM,VT,44.3289,-72.169
5863,SAINT JOHNSBURY CENTER,VT,44.4567,-72.0157
5866,SHEFFIELD,VT,44.6178,-72.1239
5867,SUTTON,VT,44.6465,-72.0211
5868,TROY,VT,44.9014,-72.4015
5871,WEST BURKE,VT,44.6636,-71.9572
5872,WEST CHARLESTON,VT,44.8729,-72.0521
5873,WEST DANVILLE,VT,44.4465,-72.2198
5874,WESTFIELD,VT,44.8825,-72.4396
5875,BARTON,VT,44.7481,-72.1762
5901,AVERILL,VT,44.6808,-71.7194
5902,BEECHER FALLS,VT,45.0085,-71.4907
5903,CANAAN,VT,44.9764,-71.5602
5904,GILMAN,VT,44.414,-71.7179
5905,GUILDHALL,VT,44.6902,-71.5991
5906,LUNENBURG,VT,44.4663,-71.693
5907,NORTON,VT,44.9888,-71.7884
6001,AVON,CT,41.7905,-72.8653
6002,BLOOMFIELD,CT,41.8316,-72.7249
6006,WINDSOR,CT,41.8526,-72.6437
6010,BRISTOL,CT,41.6823,-72.9302
6011,BRISTOL,CT,41.6718,-72.9493
6013,BURLINGTON,CT,41.7573,-72.9444
6016,BROAD BROOK,CT,41.9042,-72.5444
6018,CANAAN,CT,42.0248,-73.3232
6019,CANTON,CT,41.8384,-72.8987
6020,CANTON CENTER,CT,41.8539,-72.9028
6021,COLEBROOK,CT,42.0282,-73.1041
6022,COLLINSVILLE,CT,41.8513,-72.9283
6023,EAST BERLIN,CT,41.6128,-72.719
6024,EAST CANAAN,CT,42.0158,-73.2913
6025,EAST GLASTONBURY,CT,41.6889,-72.5345
6026,EAST GRANBY,CT,41.9322,-72.7459
6027,EAST HARTLAND,CT,42.0016,-72.9242
6028,EAST WINDSOR HILL,CT,41.8592,-72.603
6029,ELLINGTON,CT,41.9114,-72.4626
6030,FARMINGTON,CT,41.7918,-72.7188
6031,FALLS VILLAGE,CT,41.9559,-73.3632
6032,FARMINGTON,CT,41.7284,-72.8415
6033,GLASTONBURY,CT,41.7073,-72.5727
6034,FARMINGTON,CT,41.7918,-72.7188
6035,GRANBY,CT,41.9602,-72.7994
6037,BERLIN,CT,41.6215,-72.7457
6039,LAKEVILLE,CT,41.9516,-73.4377
6040,MANCHESTER,CT,41.7777,-72.5244
6041,MANCHESTER,CT,41.7759,-72.5215
6042,MANCHESTER,CT,41.7966,-72.5292
6043,BOLTON,CT,41.7689,-72.4396
6045,MANCHESTER,CT,41.7759,-72.5215
6050,NEW BRITAIN,CT,41.666,-72.7784
6051,NEW BRITAIN,CT,41.6667,-72.7722
6052,NEW BRITAIN,CT,41.6588,-72.7989
6053,NEW BRITAIN,CT,41.6867,-72.7908
6057,NEW HARTFORD,CT,41.8468,-73.0104
6058,NORFOLK,CT,41.9854,-73.1992
6059,NORTH CANTON,CT,41.8997,-72.8907
6060,NORTH GRANBY,CT,42.0219,-72.8409
6061,PINE MEADOW,CT,41.8765,-72.967
6062,PLAINVILLE,CT,41.6727,-72.8644
6063,BARKHAMSTED,CT,41.9293,-72.914
6064,POQUONOCK,CT,41.9048,-72.6787
6065,RIVERTON,CT,41.9686,-73.0145
6066,VERNON ROCKVILLE,CT,41.8501,-72.4649
6067,ROCKY HILL,CT,41.6583,-72.6632
6068,SALISBURY,CT,42.0015,-73.4215
6069,SHARON,CT,41.8714,-73.4578
6070,SIMSBURY,CT,41.8759,-72.8012
6071,SOMERS,CT,41.9978,-72.4583
6072,SOMERSVILLE,CT,41.9765,-72.4906
6073,SOUTH GLASTONBURY,CT,41.6571,-72.5722
6074,SOUTH WINDSOR,CT,41.8341,-72.5576
6075,STAFFORD,CT,41.9848,-72.289
6076,STAFFORD SPRINGS,CT,41.9661,-72.2899
6077,STAFFORDVILLE,CT,41.9916,-72.2577
6078,SUFFIELD,CT,41.99,-72.642
6079,TACONIC,CT,42.032,-73.4038
6080,SUFFIELD,CT,41.9818,-72.6506
6081,TARIFFVILLE,CT,41.9077,-72.7678
6082,ENFIELD,CT,41.989,-72.5652
6083,ENFIELD,CT,41.9762,-72.5918
6084,TOLLAND,CT,41.8696,-72.3718
6085,UNIONVILLE,CT,41.7477,-72.8874
6087,UNIONVILLE,CT,41.7576,-72.885
6088,EAST WINDSOR,CT,41.9099,-72.6029
6089,WEATOGUE,CT,41.8372,-72.8253
6090,WEST GRANBY,CT,41.9556,-72.862
6091,WEST HARTLAND,CT,42.0076,-72.9707
6092,WEST SIMSBURY,CT,41.8718,-72.8577
6093,WEST SUFFIELD,CT,42.0115,-72.7362
6094,WINCHESTER CENTER,CT,41.8963,-73.1463
6095,WINDSOR,CT,41.8561,-72.6639
6096,WINDSOR LOCKS,CT,41.9261,-72.6458
6098,WINSTED,CT,41.9252,-73.0663
6101,HARTFORD,CT,41.7801,-72.6771
6102,HARTFORD,CT,41.7918,-72.7188
6103,HARTFORD,CT,41.7672,-72.676
6104,HARTFORD,CT,41.7918,-72.7188
6105,HARTFORD,CT,41.7691,-72.701
6106,HARTFORD,CT,41.7498,-72.6947
6107,WEST HARTFORD,CT,41.7556,-72.7532
6108,EAST HARTFORD,CT,41.7803,-72.618
6109,WETHERSFIELD,CT,41.7013,-72.6763
6110,WEST HARTFORD,CT,41.7326,-72.7337
6111,NEWINGTON,CT,41.686,-72.7296
6112,HARTFORD,CT,41.7905,-72.6964
6114,HARTFORD,CT,41.7403,-72.6807
6115,HARTFORD,CT,41.7588,-72.6794
6117,WEST HARTFORD,CT,41.79,-72.7457
6118,EAST HARTFORD,CT,41.7472,-72.6103
6119,WEST HARTFORD,CT,41.7628,-72.7268
6120,HARTFORD,CT,41.786,-72.6758
6123,HARTFORD,CT,41.7637,-72.6851
6126,HARTFORD,CT,41.7637,-72.6851
6127,WEST HARTFORD,CT,41.7918,-72.7188
6128,EAST HARTFORD,CT,41.7918,-72.7188
6129,WETHERSFIELD,CT,41.7918,-72.7188
6131,NEWINGTON,CT,41.7918,-72.7188
6132,HARTFORD,CT,41.7637,-72.6851
6133,WEST HARTFORD,CT,41.7918,-72.7188
6134,HARTFORD,CT,41.7637,-72.6851
6137,WEST HARTFORD,CT,41.7918,-72.7188
6138,EAST HARTFORD,CT,41.7918,-72.7188
6140,HARTFORD,CT,41.7918,-72.7188
6141,HARTFORD,CT,41.7918,-72.7188
6142,HARTFORD,CT,41.7918,-72.7188
6143,HARTFORD,CT,41.7918,-72.7188
6144,HARTFORD,CT,41.7918,-72.7188
6145,HARTFORD,CT,41.7918,-72.7188
6146,HARTFORD,CT,41.7918,-72.7188
6147,HARTFORD,CT,41.7918,-72.7188
6150,HARTFORD,CT,41.7918,-72.7188
6151,HARTFORD,CT,41.7918,-72.7188
6152,HARTFORD,CT,41.7637,-72.6851
6153,HARTFORD,CT,41.7918,-72.7188
6154,HARTFORD,CT,41.7715,-72.6867
6155,HARTFORD,CT,41.7693,-72.6865
6156,HARTFORD,CT,41.7679,-72.6907
6160,HARTFORD,CT,41.7665,-72.6933
6161,HARTFORD,CT,41.766,-72.6718
6167,HARTFORD,CT,41.7637,-72.6851
6176,HARTFORD,CT,41.7918,-72.7188
6180,HARTFORD,CT,41.7918,-72.7188
6183,HARTFORD,CT,41.7638,-72.673
6199,HARTFORD,CT,41.9274,-72.6804
6226,WILLIMANTIC,CT,41.7149,-72.2134
6230,ABINGTON,CT,41.8473,-72.0253
6231,AMSTON,CT,41.629,-72.3646
6232,ANDOVER,CT,41.7332,-72.3767
6233,BALLOUVILLE,CT,41.8768,-71.8612
6234,BROOKLYN,CT,41.7807,-71.9541
6235,CHAPLIN,CT,41.8026,-72.1372
6237,COLUMBIA,CT,41.6973,-72.3072
6238,COVENTRY,CT,41.7822,-72.3332
6239,DANIELSON,CT,41.7982,-71.8807
6241,DAYVILLE,CT,41.854,-71.8683
6242,EASTFORD,CT,41.8771,-72.0895
6243,EAST KILLINGLY,CT,41.8452,-71.8026
6244,EAST WOODSTOCK,CT,41.9843,-71.981
6245,FABYAN,CT,42.0198,-71.9417
6246,GROSVENOR DALE,CT,41.9711,-71.8917
6247,HAMPTON,CT,41.7671,-72.0662
6248,HEBRON,CT,41.6842,-72.3986
6249,LEBANON,CT,41.633,-72.244
6250,MANSFIELD CENTER,CT,41.7698,-72.2011
6251,MANSFIELD DEPOT,CT,41.7993,-72.3065
6254,NORTH FRANKLIN,CT,41.6161,-72.1425
6255,NORTH GROSVENORDALE,CT,41.9784,-71.8997
6256,NORTH WINDHAM,CT,41.7451,-72.1601
6258,POMFRET,CT,41.889,-71.9682
6259,POMFRET CENTER,CT,41.8697,-71.982
6260,PUTNAM,CT,41.9185,-71.8968
6262,QUINEBAUG,CT,42.0217,-71.9391
6263,ROGERS,CT,41.8391,-71.9063
6264,SCOTLAND,CT,41.6958,-72.087
6265,SOUTH WILLINGTON,CT,41.8554,-72.3015
6266,SOUTH WINDHAM,CT,41.6677,-72.1681
6267,SOUTH WOODSTOCK,CT,41.9439,-71.9453
6268,STORRS MANSFIELD,CT,41.7997,-72.2478
6269,STORRS MANSFIELD,CT,41.808,-72.251
6277,THOMPSON,CT,41.9803,-71.8376
6278,ASHFORD,CT,41.889,-72.1476
6279,WILLINGTON,CT,41.8966,-72.2622
6280,WINDHAM,CT,41.7027,-72.1526
6281,WOODSTOCK,CT,41.9602,-72.004
6282,WOODSTOCK VALLEY,CT,41.9153,-72.0937
6320,NEW LONDON,CT,41.3507,-72.1062
6330,BALTIC,CT,41.6263,-72.0775
6331,CANTERBURY,CT,41.6844,-72.001
6332,CENTRAL VILLAGE,CT,41.7229,-71.9067
6333,EAST LYME,CT,41.3668,-72.233
6334,BOZRAH,CT,41.5465,-72.1711
6335,GALES FERRY,CT,41.4285,-72.0672
6336,GILMAN,CT,41.5795,-72.1963
6338,MASHANTUCKET,CT,41.4757,-71.9574
6339,LEDYARD,CT,41.4401,-71.9956
6340,GROTON,CT,41.3572,-72.0579
6349,GROTON,CT,41.3997,-72.0904
6350,HANOVER,CT,41.6445,-72.0677
6351,JEWETT CITY,CT,41.6052,-71.9808
6353,MONTVILLE,CT,41.4525,-72.1375
6354,MOOSUP,CT,41.721,-71.885
6355,MYSTIC,CT,41.3616,-71.9774
6357,NIANTIC,CT,41.3253,-72.2108
6359,NORTH STONINGTON,CT,41.4531,-71.8727
6360,NORWICH,CT,41.5371,-72.0849
6365,PRESTON,CT,41.5224,-71.9934
6370,OAKDALE,CT,41.4706,-72.1904
6371,OLD LYME,CT,41.3347,-72.3086
6372,OLD MYSTIC,CT,41.3882,-71.9495
6373,ONECO,CT,41.6785,-71.8178
6374,PLAINFIELD,CT,41.6775,-71.922
6375,QUAKER HILL,CT,41.4032,-72.1172
6376,SOUTH LYME,CT,41.2967,-72.2633
6377,STERLING,CT,41.7156,-71.8196
6378,STONINGTON,CT,41.3664,-71.9155
6379,PAWCATUCK,CT,41.3735,-71.8478
6380,TAFTVILLE,CT,41.5653,-72.0529
6382,UNCASVILLE,CT,41.4622,-72.1126
6383,VERSAILLES,CT,41.6016,-72.0404
6384,VOLUNTOWN,CT,41.5831,-71.855
6385,WATERFORD,CT,41.3469,-72.1458
6387,WAUREGAN,CT,41.7445,-71.9133
6388,WEST MYSTIC,CT,41.3441,-71.9765
6389,YANTIC,CT,41.5598,-72.1237
6390,FISHERS ISLAND,NY,41.2639,-72.0178
6401,ANSONIA,CT,41.3427,-73.0742
6403,BEACON FALLS,CT,41.4369,-73.0597
6404,BOTSFORD,CT,41.3665,-73.2571
6405,BRANFORD,CT,41.28,-72.8106
6408,CHESHIRE,CT,41.3657,-72.9275
6409,CENTERBROOK,CT,41.3474,-72.4173
6410,CHESHIRE,CT,41.5055,-72.9081
6411,CHESHIRE,CT,41.499,-72.9007
6412,CHESTER,CT,41.4049,-72.4643
6413,CLINTON,CT,41.2912,-72.528
6414,COBALT,CT,41.5667,-72.5581
6415,COLCHESTER,CT,41.5662,-72.3441
6416,CROMWELL,CT,41.6105,-72.6663
6417,DEEP RIVER,CT,41.3765,-72.4486
6418,DERBY,CT,41.3229,-73.08
6419,KILLINGWORTH,CT,41.3696,-72.5712
6420,SALEM,CT,41.4966,-72.2725
6422,DURHAM,CT,41.465,-72.6875
6423,EAST HADDAM,CT,41.4696,-72.4059
6424,EAST HAMPTON,CT,41.5761,-72.5093
6426,ESSEX,CT,41.3549,-72.3965
6437,GUILFORD,CT,41.3154,-72.6968
6438,HADDAM,CT,41.4627,-72.505
6439,HADLYME,CT,41.4212,-72.4141
6440,HAWLEYVILLE,CT,41.4276,-73.3551
6441,HIGGANUM,CT,41.4682,-72.5751
6442,IVORYTON,CT,41.3421,-72.4404
6443,MADISON,CT,41.309,-72.6153
6444,MARION,CT,41.5637,-72.9257
6447,MARLBOROUGH,CT,41.6412,-72.4609
6450,MERIDEN,CT,41.5334,-72.7997
6451,MERIDEN,CT,41.5401,-72.8189
6455,MIDDLEFIELD,CT,41.5168,-72.7186
6456,MIDDLE HADDAM,CT,41.554,-72.5501
6457,MIDDLETOWN,CT,41.5569,-72.6652
6459,MIDDLETOWN,CT,41.5565,-72.6582
6460,MILFORD,CT,41.2175,-73.0549
6461,MILFORD,CT,41.2338,-73.0747
6467,MILLDALE,CT,41.5657,-72.9037
6468,MONROE,CT,41.3312,-73.2243
6469,MOODUS,CT,41.5078,-72.4419
6470,NEWTOWN,CT,41.3931,-73.3167
6471,NORTH BRANFORD,CT,41.3323,-72.7809
6472,NORTHFORD,CT,41.3962,-72.7809
6473,NORTH HAVEN,CT,41.3822,-72.8585
6474,NORTH WESTCHESTER,CT,41.5809,-72.4012
6475,OLD SAYBROOK,CT,41.2913,-72.385
6477,ORANGE,CT,41.2815,-73.0287
6478,OXFORD,CT,41.4202,-73.1296
6479,PLANTSVILLE,CT,41.5797,-72.899
6480,PORTLAND,CT,41.5852,-72.6128
6481,ROCKFALL,CT,41.5341,-72.6997
6482,SANDY HOOK,CT,41.4087,-73.2485
6483,SEYMOUR,CT,41.3862,-73.0817
6484,SHELTON,CT,41.3047,-73.1294
6487,SOUTH BRITAIN,CT,41.4709,-73.2515
6488,SOUTHBURY,CT,41.4767,-73.2241
6489,SOUTHINGTON,CT,41.6052,-72.8727
6491,STEVENSON,CT,41.3866,-73.1872
6492,WALLINGFORD,CT,41.46,-72.8222
6493,WALLINGFORD,CT,41.3657,-72.9275
6494,WALLINGFORD,CT,41.3657,-72.9275
6495,WALLINGFORD,CT,41.3885,-72.8795
6498,WESTBROOK,CT,41.2927,-72.4563
6501,NEW HAVEN,CT,41.3082,-72.9282
6502,NEW HAVEN,CT,41.3082,-72.9282
6503,NEW HAVEN,CT,41.3082,-72.9282
6504,NEW HAVEN,CT,41.3657,-72.9275
6505,NEW HAVEN,CT,41.3082,-72.9282
6506,NEW HAVEN,CT,41.3082,-72.9282
6507,NEW HAVEN,CT,41.3082,-72.9282
6508,NEW HAVEN,CT,41.3082,-72.9282
6509,NEW HAVEN,CT,41.3082,-72.9282
6510,NEW HAVEN,CT,41.3087,-72.9271
6511,NEW HAVEN,CT,41.3184,-72.9318
6512,NEW HAVEN,CT,41.3082,-72.9282
6513,NEW HAVEN,CT,41.3072,-72.8654
6514,HAMDEN,CT,41.362,-72.9361
6515,NEW HAVEN,CT,41.3293,-72.9664
6516,WEST HAVEN,CT,41.2701,-72.9638
6517,HAMDEN,CT,41.3484,-72.9117
6518,HAMDEN,CT,41.4097,-72.911
6519,NEW HAVEN,CT,41.2963,-72.9373
6520,NEW HAVEN,CT,41.3082,-72.9282
6521,NEW HAVEN,CT,41.3082,-72.9282
6524,BETHANY,CT,41.4262,-73.0007
6525,NEW HAVEN,CT,41.3082,-72.9282
6530,NEW HAVEN,CT,41.3082,-72.9282
6531,NEW HAVEN,CT,41.3082,-72.9282
6532,NEW HAVEN,CT,41.3082,-72.9282
6533,NEW HAVEN,CT,41.3082,-72.9282
6534,NEW HAVEN,CT,41.3082,-72.9282
6535,NEW HAVEN,CT,41.3082,-72.9282
6536,NEW HAVEN,CT,41.3082,-72.9282
6537,NEW HAVEN,CT,41.3657,-72.9275
6538,NEW HAVEN,CT,41.3657,-72.9275
6540,NEW HAVEN,CT,41.2996,-72.9188
6601,BRIDGEPORT,CT,41.167,-73.2048
6602,BRIDGEPORT,CT,41.1798,-73.189
6604,BRIDGEPORT,CT,41.1796,-73.2019
6605,BRIDGEPORT,CT,41.1668,-73.2163
6606,BRIDGEPORT,CT,41.2091,-73.2086
6607,BRIDGEPORT,CT,41.1784,-73.165
6608,BRIDGEPORT,CT,41.1895,-73.1811
6610,BRIDGEPORT,CT,41.2005,-73.1688
6611,TRUMBULL,CT,41.2564,-73.2111
6612,EASTON,CT,41.2523,-73.2871
6614,STRATFORD,CT,41.216,-73.1304
6615,STRATFORD,CT,41.177,-73.1336
6673,BRIDGEPORT,CT,41.167,-73.2048
6699,BRIDGEPORT,CT,41.167,-73.2048
6701,WATERBURY,CT,41.5582,-73.0515
6702,WATERBURY,CT,41.5566,-73.0385
6703,WATERBURY,CT,41.5582,-73.0515
6704,WATERBURY,CT,41.5754,-73.0318
6705,WATERBURY,CT,41.5503,-72.9963
6706,WATERBURY,CT,41.5363,-73.0306
6708,WATERBURY,CT,41.5511,-73.0645
6710,WATERBURY,CT,41.5675,-73.0468
6712,PROSPECT,CT,41.5022,-72.9788
6716,WOLCOTT,CT,41.597,-72.9828
6720,WATERBURY,CT,41.5582,-73.0515
6721,WATERBURY,CT,41.5582,-73.0515
6722,WATERBURY,CT,41.5582,-73.0515
6723,WATERBURY,CT,41.5582,-73.0515
6724,WATERBURY,CT,41.5582,-73.0515
6725,WATERBURY,CT,41.5582,-73.0515
6726,WATERBURY,CT,41.5582,-73.0515
6749,WATERBURY,CT,41.5582,-73.0515
6750,BANTAM,CT,41.7215,-73.252
6751,BETHLEHEM,CT,41.6387,-73.2091
6752,BRIDGEWATER,CT,41.5287,-73.3609
6753,CORNWALL,CT,41.8281,-73.3323
6754,CORNWALL BRIDGE,CT,41.8187,-73.371
6755,GAYLORDSVILLE,CT,41.6486,-73.4835
6756,GOSHEN,CT,41.8335,-73.2429
6757,KENT,CT,41.7316,-73.4583
6758,LAKESIDE,CT,41.6754,-73.242
6759,LITCHFIELD,CT,41.7541,-73.2
6762,MIDDLEBURY,CT,41.5343,-73.1131
6763,MORRIS,CT,41.6881,-73.1765
6770,NAUGATUCK,CT,41.492,-73.0493
6776,NEW MILFORD,CT,41.5817,-73.4128
6777,NEW PRESTON MARBLE DALE,CT,41.6903,-73.3103
6778,NORTHFIELD,CT,41.7077,-73.109
6779,OAKVILLE,CT,41.5909,-73.0873
6781,PEQUABUCK,CT,41.6699,-72.9915
6782,PLYMOUTH,CT,41.6611,-73.0449
6783,ROXBURY,CT,41.5509,-73.2993
6784,SHERMAN,CT,41.5714,-73.4947
6785,SOUTH KENT,CT,41.6951,-73.469
6786,TERRYVILLE,CT,41.6762,-73.0092
6787,THOMASTON,CT,41.6786,-73.0886
6790,TORRINGTON,CT,41.8131,-73.1156
6791,HARWINTON,CT,41.7701,-73.0728
6792,TORRINGTON,CT,41.7549,-73.0582
6793,WASHINGTON,CT,41.6296,-73.2884
6794,WASHINGTON DEPOT,CT,41.6559,-73.3274
6795,WATERTOWN,CT,41.6057,-73.1221
6796,WEST CORNWALL,CT,41.8689,-73.3313
6798,WOODBURY,CT,41.5521,-73.2083
6801,BETHEL,CT,41.3813,-73.4008
6804,BROOKFIELD,CT,41.465,-73.398
6807,COS COB,CT,41.053,-73.5935
6810,DANBURY,CT,41.3917,-73.4532
6811,DANBURY,CT,41.424,-73.4716
6812,NEW FAIRFIELD,CT,41.473,-73.4978
6813,DANBURY,CT,41.3948,-73.454
6814,DANBURY,CT,41.3089,-73.3637
6816,DANBURY,CT,41.3089,-73.3637
6817,DANBURY,CT,41.3948,-73.454
6820,DARIEN,CT,41.0768,-73.4853
6824,FAIRFIELD,CT,41.1692,-73.2681
6825,FAIRFIELD,CT,41.1928,-73.2402
6828,FAIRFIELD,CT,41.169,-73.2334
6829,GEORGETOWN,CT,41.2555,-73.4279
6830,GREENWICH,CT,41.0427,-73.6262
6831,GREENWICH,CT,41.0549,-73.6594
6836,GREENWICH,CT,41.0265,-73.6285
6838,GREENS FARMS,CT,41.1238,-73.3195
6840,NEW CANAAN,CT,41.151,-73.4944
6850,NORWALK,CT,41.1222,-73.4358
6851,NORWALK,CT,41.1323,-73.4058
6852,NORWALK,CT,41.3089,-73.3637
6853,NORWALK,CT,41.0702,-73.4397
6854,NORWALK,CT,41.0957,-73.4285
6855,NORWALK,CT,41.1014,-73.4011
6856,NORWALK,CT,41.1112,-73.4204
6857,NORWALK,CT,41.3089,-73.3637
6858,NORWALK,CT,41.1105,-73.4162
6860,NORWALK,CT,41.3089,-73.3637
6870,OLD GREENWICH,CT,41.0354,-73.5673
6875,REDDING CENTER,CT,41.3089,-73.3637
6876,REDDING RIDGE,CT,41.314,-73.3504
6877,RIDGEFIELD,CT,41.2977,-73.4973
6878,RIVERSIDE,CT,41.038,-73.5811
6879,RIDGEFIELD,CT,41.2815,-73.4982
6880,WESTPORT,CT,41.1434,-73.3496
6881,WESTPORT,CT,41.1415,-73.3579
6883,WESTON,CT,41.2195,-73.3715
6888,WESTPORT,CT,41.3089,-73.3637
6889,WESTPORT,CT,41.141,-73.3469
6890,SOUTHPORT,CT,41.1428,-73.2884
6896,REDDING,CT,41.2711,-73.3863
6897,WILTON,CT,41.2018,-73.4383
6901,STAMFORD,CT,41.0531,-73.539
6902,STAMFORD,CT,41.0602,-73.5445
6903,STAMFORD,CT,41.1352,-73.5684
6904,STAMFORD,CT,41.0534,-73.5387
6905,STAMFORD,CT,41.0888,-73.5435
6906,STAMFORD,CT,41.0692,-73.5236
6907,STAMFORD,CT,41.0942,-73.5203
6910,STAMFORD,CT,41.0391,-73.5591
6911,STAMFORD,CT,41.0534,-73.5387
6912,STAMFORD,CT,41.0534,-73.5387
6913,STAMFORD,CT,41.0534,-73.5387
6914,STAMFORD,CT,41.0534,-73.5387
6920,STAMFORD,CT,41.0534,-73.5387
6921,STAMFORD,CT,41.0499,-73.538
6922,STAMFORD,CT,41.0516,-73.5143
6926,STAMFORD,CT,41.0412,-73.5386
6927,STAMFORD,CT,41.0534,-73.5387
7001,AVENEL,NJ,40.5826,-74.2785
7002,BAYONNE,NJ,40.6664,-74.1192
7003,BLOOMFIELD,NJ,40.8035,-74.1891
7004,FAIRFIELD,NJ,40.8822,-74.296
7005,BOONTON,NJ,40.9115,-74.414
7006,CALDWELL,NJ,40.8545,-74.2789
7007,CALDWELL,NJ,40.8398,-74.2765
7008,CARTERET,NJ,40.5823,-74.2313
7009,CEDAR GROVE,NJ,40.8534,-74.2297
7010,CLIFFSIDE PARK,NJ,40.8222,-73.988
7011,CLIFTON,NJ,40.8789,-74.1425
7012,CLIFTON,NJ,40.8488,-74.1612
7013,CLIFTON,NJ,40.8693,-74.1711
7014,CLIFTON,NJ,40.8344,-74.1377
7015,CLIFTON,NJ,40.8584,-74.1638
7016,CRANFORD,NJ,40.6554,-74.3057
7017,EAST ORANGE,NJ,40.7696,-74.2077
7018,EAST ORANGE,NJ,40.7558,-74.2198
7019,EAST ORANGE,NJ,40.7673,-74.2049
7020,EDGEWATER,NJ,40.8317,-73.9738
7021,ESSEX FELLS,NJ,40.8279,-74.2797
7022,FAIRVIEW,NJ,40.817,-74
7023,FANWOOD,NJ,40.6419,-74.3868
7024,FORT LEE,NJ,40.8503,-73.9745
7026,GARFIELD,NJ,40.8789,-74.1081
7027,GARWOOD,NJ,40.6512,-74.3239
7028,GLEN RIDGE,NJ,40.804,-74.2055
7029,HARRISON,NJ,40.7445,-74.1508
7030,HOBOKEN,NJ,40.7445,-74.0329
7031,NORTH ARLINGTON,NJ,40.7898,-74.1343
7032,KEARNY,NJ,40.7647,-74.1471
7033,KENILWORTH,NJ,40.6759,-74.2944
7034,LAKE HIAWATHA,NJ,40.8825,-74.383
7035,LINCOLN PARK,NJ,40.9208,-74.2995
7036,LINDEN,NJ,40.6354,-74.2556
7039,LIVINGSTON,NJ,40.7896,-74.3202
7040,MAPLEWOOD,NJ,40.7279,-74.2656
7041,MILLBURN,NJ,40.7228,-74.3015
7042,MONTCLAIR,NJ,40.8131,-74.2165
7043,MONTCLAIR,NJ,40.843,-74.2011
7044,VERONA,NJ,40.8319,-74.2428
7045,MONTVILLE,NJ,40.9049,-74.3646
7046,MOUNTAIN LAKES,NJ,40.8904,-74.4415
7047,NORTH BERGEN,NJ,40.7939,-74.0258
7050,ORANGE,NJ,40.7692,-74.2355
7051,ORANGE,NJ,40.7918,-74.2452
7052,WEST ORANGE,NJ,40.7859,-74.2568
7054,PARSIPPANY,NJ,40.8621,-74.4117
7055,PASSAIC,NJ,40.8601,-74.1283
7057,WALLINGTON,NJ,40.8536,-74.1079
7058,PINE BROOK,NJ,40.8742,-74.35
7059,WARREN,NJ,40.6318,-74.5105
7060,PLAINFIELD,NJ,40.6152,-74.415
7061,PLAINFIELD,NJ,40.6657,-74.2997
7062,PLAINFIELD,NJ,40.6323,-74.3997
7063,PLAINFIELD,NJ,40.6048,-74.4427
7064,PORT READING,NJ,40.5709,-74.2466
7065,RAHWAY,NJ,40.6087,-74.2819
7066,CLARK,NJ,40.6203,-74.3106
7067,COLONIA,NJ,40.5937,-74.3164
7068,ROSELAND,NJ,40.8203,-74.3047
7069,WATCHUNG,NJ,40.6378,-74.4514
7070,RUTHERFORD,NJ,40.8292,-74.1121
7071,LYNDHURST,NJ,40.8094,-74.1245
7072,CARLSTADT,NJ,40.8403,-74.0925
7073,EAST RUTHERFORD,NJ,40.8385,-74.1041
7074,MOONACHIE,NJ,40.8394,-74.0566
7075,WOOD RIDGE,NJ,40.8493,-74.0878
7076,SCOTCH PLAINS,NJ,40.6379,-74.3682
7077,SEWAREN,NJ,40.5542,-74.2607
7078,SHORT HILLS,NJ,40.7368,-74.3271
7079,SOUTH ORANGE,NJ,40.7465,-74.2575
7080,SOUTH PLAINFIELD,NJ,40.5839,-74.4147
7081,SPRINGFIELD,NJ,40.7015,-74.3227
7082,TOWACO,NJ,40.9277,-74.3428
7083,UNION,NJ,40.6952,-74.2677
7086,WEEHAWKEN,NJ,40.7681,-74.0208
7087,UNION CITY,NJ,40.7674,-74.0323
7088,VAUXHALL,NJ,40.7179,-74.2829
7090,WESTFIELD,NJ,40.6479,-74.3451
7091,WESTFIELD,NJ,40.6657,-74.2997
7092,MOUNTAINSIDE,NJ,40.6785,-74.3588
7093,WEST NEW YORK,NJ,40.7888,-74.0115
7094,SECAUCUS,NJ,40.791,-74.0634
7095,WOODBRIDGE,NJ,40.556,-74.2845
7096,SECAUCUS,NJ,40.7328,-74.0755
7097,JERSEY CITY,NJ,40.7328,-74.0755
7099,KEARNY,NJ,40.7328,-74.0755
7101,NEWARK,NJ,40.7361,-74.2251
7102,NEWARK,NJ,40.732,-74.1765
7103,NEWARK,NJ,40.737,-74.1964
7104,NEWARK,NJ,40.7664,-74.1695
7105,NEWARK,NJ,40.7271,-74.1563
7106,NEWARK,NJ,40.7415,-74.233
7107,NEWARK,NJ,40.7607,-74.1882
7108,NEWARK,NJ,40.7236,-74.2015
7109,BELLEVILLE,NJ,40.7946,-74.1631
7110,NUTLEY,NJ,40.8185,-74.1589
7111,IRVINGTON,NJ,40.7261,-74.2313
7112,NEWARK,NJ,40.7107,-74.2131
7114,NEWARK,NJ,40.7082,-74.1891
7175,NEWARK,NJ,40.7357,-74.1724
7184,NEWARK,NJ,40.7918,-74.2452
7188,NEWARK,NJ,40.7357,-74.1724
7189,NEWARK,NJ,40.7918,-74.2452
7191,NEWARK,NJ,40.7918,-74.2452
7192,NEWARK,NJ,40.7357,-74.1724
7193,NEWARK,NJ,40.7357,-74.1724
7195,NEWARK,NJ,40.7357,-74.1724
7198,NEWARK,NJ,40.7918,-74.2452
7199,NEWARK,NJ,40.7357,-74.1724
7201,ELIZABETH,NJ,40.6717,-74.2043
7202,ELIZABETH,NJ,40.6565,-74.2215
7203,ROSELLE,NJ,40.653,-74.261
7204,ROSELLE PARK,NJ,40.6651,-74.267
7205,HILLSIDE,NJ,40.6968,-74.2281
7206,ELIZABETHPORT,NJ,40.6501,-74.1871
7207,ELIZABETH,NJ,40.664,-74.2107
7208,ELIZABETH,NJ,40.6747,-74.2239
7302,JERSEY CITY,NJ,40.7221,-74.0469
7303,JERSEY CITY,NJ,40.7328,-74.0755
7304,JERSEY CITY,NJ,40.718,-74.0754
7305,JERSEY CITY,NJ,40.702,-74.089
7306,JERSEY CITY,NJ,40.7321,-74.066
7307,JERSEY CITY,NJ,40.7482,-74.0498
7308,JERSEY CITY,NJ,40.7328,-74.0755
7310,JERSEY CITY,NJ,40.7324,-74.0431
7311,JERSEY CITY,NJ,40.7323,-74.0754
7395,JERSEY CITY,NJ,40.7279,-74.078
7399,JERSEY CITY,NJ,40.7323,-74.0754
7401,ALLENDALE,NJ,41.0327,-74.1342
7403,BLOOMINGDALE,NJ,41.0128,-74.3338
7405,BUTLER,NJ,40.9988,-74.4261
7407,ELMWOOD PARK,NJ,40.9069,-74.1209
7410,FAIR LAWN,NJ,40.9343,-74.1166
7416,FRANKLIN,NJ,41.1164,-74.5865
7417,FRANKLIN LAKES,NJ,41.0081,-74.2113
7418,GLENWOOD,NJ,41.2356,-74.4885
7419,HAMBURG,NJ,41.1467,-74.5874
7420,HASKELL,NJ,41.0301,-74.2965
7421,HEWITT,NJ,41.1709,-74.3686
7422,HIGHLAND LAKES,NJ,41.1826,-74.4564
7423,HO HO KUS,NJ,41.0004,-74.1025
7424,LITTLE FALLS,NJ,40.8835,-74.2144
7428,MC AFEE,NJ,41.2065,-74.5381
7430,MAHWAH,NJ,41.0817,-74.1861
7432,MIDLAND PARK,NJ,40.9957,-74.1409
7435,NEWFOUNDLAND,NJ,41.0647,-74.4359
7436,OAKLAND,NJ,41.0294,-74.2338
7438,OAK RIDGE,NJ,41.0302,-74.5198
7439,OGDENSBURG,NJ,41.0767,-74.5982
7440,PEQUANNOCK,NJ,40.9473,-74.296
7442,POMPTON LAKES,NJ,40.9993,-74.2876
7444,POMPTON PLAINS,NJ,40.9655,-74.3016
7446,RAMSEY,NJ,41.0577,-74.1445
7450,RIDGEWOOD,NJ,40.982,-74.1131
7451,RIDGEWOOD,NJ,40.9793,-74.1165
7452,GLEN ROCK,NJ,40.9602,-74.1254
7456,RINGWOOD,NJ,41.0928,-74.2659
7457,RIVERDALE,NJ,40.9931,-74.3088
7458,SADDLE RIVER,NJ,41.0443,-74.0981
7460,STOCKHOLM,NJ,41.0992,-74.5283
7461,SUSSEX,NJ,41.2292,-74.5992
7462,VERNON,NJ,41.185,-74.5332
7463,WALDWICK,NJ,41.013,-74.1243
7465,WANAQUE,NJ,41.0544,-74.279
7470,WAYNE,NJ,40.9471,-74.2466
7474,WAYNE,NJ,40.9481,-74.245
7480,WEST MILFORD,NJ,41.0915,-74.375
7481,WYCKOFF,NJ,40.9978,-74.166
7495,MAHWAH,NJ,41.1039,-74.1644
7501,PATERSON,NJ,40.9143,-74.1671
7502,PATERSON,NJ,40.9199,-74.1932
7503,PATERSON,NJ,40.897,-74.1573
7504,PATERSON,NJ,40.9122,-74.1452
7505,PATERSON,NJ,40.9166,-74.174
7506,HAWTHORNE,NJ,40.9564,-74.1569
7507,HAWTHORNE,NJ,40.9493,-74.1538
7508,HALEDON,NJ,40.9457,-74.1826
7509,PATERSON,NJ,40.9168,-74.1718
7510,PATERSON,NJ,40.9168,-74.1718
7511,TOTOWA,NJ,41.0114,-74.3048
7512,TOTOWA,NJ,40.9048,-74.2168
7513,PATERSON,NJ,40.907,-74.1529
7514,PATERSON,NJ,40.9248,-74.1467
7522,PATERSON,NJ,40.9252,-74.1781
7524,PATERSON,NJ,40.9309,-74.1555
7533,PATERSON,NJ,41.0114,-74.3048
7538,HALEDON,NJ,40.9357,-74.1863
7543,PATERSON,NJ,41.0114,-74.3048
7544,PATERSON,NJ,41.0114,-74.3048
7601,HACKENSACK,NJ,40.8882,-74.0503
7602,HACKENSACK,NJ,40.8859,-74.0435
7603,BOGOTA,NJ,40.8744,-74.0281
7604,HASBROUCK HEIGHTS,NJ,40.8623,-74.0756
7605,LEONIA,NJ,40.8629,-73.9879
7606,SOUTH HACKENSACK,NJ,40.8634,-74.0456
7607,MAYWOOD,NJ,40.9024,-74.0629
7608,TETERBORO,NJ,40.864,-74.0556
7620,ALPINE,NJ,40.9511,-73.9308
7621,BERGENFIELD,NJ,40.9238,-73.9989
7624,CLOSTER,NJ,40.9721,-73.959
7626,CRESSKILL,NJ,40.9418,-73.9652
7627,DEMAREST,NJ,40.9548,-73.9602
7628,DUMONT,NJ,40.9447,-73.9921
7630,EMERSON,NJ,40.9755,-74.0285
7631,ENGLEWOOD,NJ,40.8943,-73.9772
7632,ENGLEWOOD CLIFFS,NJ,40.882,-73.9544
7640,HARRINGTON PARK,NJ,40.9918,-73.98
7641,HAWORTH,NJ,40.9608,-73.9874
7642,HILLSDALE,NJ,41.0069,-74.0426
7643,LITTLE FERRY,NJ,40.8493,-74.0405
7644,LODI,NJ,40.8764,-74.0838
7645,MONTVALE,NJ,41.0495,-74.0384
7646,NEW MILFORD,NJ,40.9331,-74.0195
7647,NORTHVALE,NJ,41.0086,-73.9389
7648,NORWOOD,NJ,40.9952,-73.9582
7649,ORADELL,NJ,40.9535,-74.0335
7650,PALISADES PARK,NJ,40.8462,-73.9954
7652,PARAMUS,NJ,40.9477,-74.0672
7653,PARAMUS,NJ,40.9481,-74.0832
7656,PARK RIDGE,NJ,41.0343,-74.0396
7657,RIDGEFIELD,NJ,40.8326,-74.0015
7660,RIDGEFIELD PARK,NJ,40.8562,-74.023
7661,RIVER EDGE,NJ,40.9265,-74.0392
7662,ROCHELLE PARK,NJ,40.9057,-74.079
7663,SADDLE BROOK,NJ,40.9031,-74.0955
7666,TEANECK,NJ,40.8915,-74.0119
7670,TENAFLY,NJ,40.9216,-73.9659
7675,WESTWOOD,NJ,41.0092,-74.0041
7676,TOWNSHIP OF WASHINGTON,NJ,40.9883,-74.0635
7677,WOODCLIFF LAKE,NJ,41.0234,-74.0603
7699,TETERBORO,NJ,40.8463,-74.0611
7701,RED BANK,NJ,40.3584,-74.0681
7702,SHREWSBURY,NJ,40.3282,-74.0589
7703,FORT MONMOUTH,NJ,40.3177,-74.039
7704,FAIR HAVEN,NJ,40.3599,-74.0389
7710,ADELPHIA,NJ,40.2182,-74.2563
7711,ALLENHURST,NJ,40.2367,-74.0067
7712,ASBURY PARK,NJ,40.2507,-74.0486
7715,BELMAR,NJ,40.1784,-74.0218
7716,ATLANTIC HIGHLANDS,NJ,40.4015,-74.0309
7717,AVON BY THE SEA,NJ,40.1918,-74.0167
7718,BELFORD,NJ,40.4173,-74.0889
7719,BELMAR,NJ,40.1688,-74.072
7720,BRADLEY BEACH,NJ,40.2023,-74.0132
7721,CLIFFWOOD,NJ,40.4353,-74.2358
7722,COLTS NECK,NJ,40.3012,-74.178
7723,DEAL,NJ,40.2506,-74.002
7724,EATONTOWN,NJ,40.3028,-74.0698
7726,ENGLISHTOWN,NJ,40.2825,-74.3424
7727,FARMINGDALE,NJ,40.2043,-74.1779
7728,FREEHOLD,NJ,40.2458,-74.2768
7730,HAZLET,NJ,40.4226,-74.1799
7731,HOWELL,NJ,40.1481,-74.2137
7732,HIGHLANDS,NJ,40.4037,-73.9915
7733,HOLMDEL,NJ,40.3859,-74.174
7734,KEANSBURG,NJ,40.4414,-74.1306
7735,KEYPORT,NJ,40.4332,-74.1996
7737,LEONARDO,NJ,40.4177,-74.0623
7738,LINCROFT,NJ,40.3369,-74.1205
7739,LITTLE SILVER,NJ,40.3354,-74.0413
7740,LONG BRANCH,NJ,40.2992,-73.9912
7746,MARLBORO,NJ,40.3182,-74.2639
7747,MATAWAN,NJ,40.4109,-74.238
7748,MIDDLETOWN,NJ,40.3944,-74.1157
7750,MONMOUTH BEACH,NJ,40.333,-73.9809
7751,MORGANVILLE,NJ,40.3529,-74.2779
7752,NAVESINK,NJ,40.4023,-74.0273
7753,NEPTUNE,NJ,40.2096,-74.0714
7754,NEPTUNE,NJ,40.2001,-74.0279
7755,OAKHURST,NJ,40.2648,-74.0184
7756,OCEAN GROVE,NJ,40.2116,-74.0093
7757,OCEANPORT,NJ,40.3157,-74.0164
7758,PORT MONMOUTH,NJ,40.4289,-74.1083
7760,RUMSON,NJ,40.3707,-74.0084
7762,SPRING LAKE,NJ,40.1542,-74.0379
7763,TENNENT,NJ,40.2796,-74.3343
7764,WEST LONG BRANCH,NJ,40.2878,-74.0162
7765,WICKATUNK,NJ,40.3501,-74.2479
7799,EATONTOWN,NJ,40.3027,-74.2493
7801,DOVER,NJ,40.9176,-74.5467
7802,DOVER,NJ,40.8673,-74.5783
7803,MINE HILL,NJ,40.8771,-74.5845
7806,PICATINNY ARSENAL,NJ,40.8673,-74.5783
7820,ALLAMUCHY,NJ,40.8696,-74.8497
7821,ANDOVER,NJ,40.9614,-74.7524
7822,AUGUSTA,NJ,41.1451,-74.6848
7823,BELVIDERE,NJ,40.8308,-75.0503
7825,BLAIRSTOWN,NJ,40.9674,-74.9651
7826,BRANCHVILLE,NJ,41.1705,-74.75
7827,MONTAGUE,NJ,41.3023,-74.754
7828,BUDD LAKE,NJ,40.8731,-74.7426
7829,BUTTZVILLE,NJ,40.8434,-74.9859
7830,CALIFON,NJ,40.7162,-74.8152
7831,CHANGEWATER,NJ,40.7394,-74.9448
7832,COLUMBIA,NJ,40.9388,-75.055
7833,DELAWARE,NJ,40.8929,-75.0646
7834,DENVILLE,NJ,40.8897,-74.4844
7836,FLANDERS,NJ,40.8453,-74.7019
7837,GLASSER,NJ,41.1283,-74.679
7838,GREAT MEADOWS,NJ,40.852,-74.9418
7839,GREENDELL,NJ,40.974,-74.821
7840,HACKETTSTOWN,NJ,40.8529,-74.8343
7842,HIBERNIA,NJ,40.8673,-74.5783
7843,HOPATCONG,NJ,40.939,-74.6616
7844,HOPE,NJ,40.9197,-74.9846
7845,IRONIA,NJ,40.8229,-74.6257
7846,JOHNSONBURG,NJ,40.9645,-74.8785
7847,KENVIL,NJ,40.8819,-74.621
7848,LAFAYETTE,NJ,41.0761,-74.6912
7849,LAKE HOPATCONG,NJ,40.9506,-74.6129
7850,LANDING,NJ,40.9087,-74.6554
7851,LAYTON,NJ,41.2299,-74.8466
7852,LEDGEWOOD,NJ,40.878,-74.6554
7853,LONG VALLEY,NJ,40.7878,-74.787
7855,MIDDLEVILLE,NJ,41.0559,-74.8629
7856,MOUNT ARLINGTON,NJ,40.9283,-74.6363
7857,NETCONG,NJ,40.8985,-74.6985
7860,NEWTON,NJ,41.0695,-74.8069
7863,OXFORD,NJ,40.8105,-75.0019
7865,PORT MURRAY,NJ,40.7906,-74.9167
7866,ROCKAWAY,NJ,40.9229,-74.5094
7869,RANDOLPH,NJ,40.8456,-74.5725
7870,SCHOOLEYS MOUNTAIN,NJ,40.8104,-74.8193
7871,SPARTA,NJ,41.0277,-74.6407
7874,STANHOPE,NJ,40.9217,-74.7004
7875,STILLWATER,NJ,41.0439,-74.872
7876,SUCCASUNNA,NJ,40.8539,-74.6536
7877,SWARTSWOOD,NJ,41.1029,-74.8508
7878,MOUNT TABOR,NJ,40.8711,-74.4777
7879,TRANQUILITY,NJ,40.9559,-74.7881
7880,VIENNA,NJ,40.8648,-74.897
7881,WALLPACK CENTER,NJ,41.1256,-74.9177
7882,WASHINGTON,NJ,40.7582,-74.9914
7885,WHARTON,NJ,40.9139,-74.5863
7890,BRANCHVILLE,NJ,41.1465,-74.7524
7901,SUMMIT,NJ,40.7149,-74.3642
7902,SUMMIT,NJ,40.7156,-74.3647
7920,BASKING RIDGE,NJ,40.6789,-74.5605
7921,BEDMINSTER,NJ,40.6571,-74.6432
7922,BERKELEY HEIGHTS,NJ,40.6752,-74.4346
7924,BERNARDSVILLE,NJ,40.7225,-74.5778
7926,BROOKSIDE,NJ,40.8004,-74.5718
7927,CEDAR KNOLLS,NJ,40.8223,-74.4569
7928,CHATHAM,NJ,40.7305,-74.4017
7930,CHESTER,NJ,40.7892,-74.6776
7931,FAR HILLS,NJ,40.6996,-74.6536
7932,FLORHAM PARK,NJ,40.7757,-74.3928
7933,GILLETTE,NJ,40.6877,-74.4681
7934,GLADSTONE,NJ,40.7219,-74.6707
7935,GREEN VILLAGE,NJ,40.7416,-74.4517
7936,EAST HANOVER,NJ,40.8192,-74.3636
7938,LIBERTY CORNER,NJ,40.6554,-74.5862
7939,LYONS,NJ,40.6674,-74.5539
7940,MADISON,NJ,40.7599,-74.4179
7945,MENDHAM,NJ,40.7789,-74.6
7946,MILLINGTON,NJ,40.6727,-74.5183
7950,MORRIS PLAINS,NJ,40.8445,-74.4824
7960,MORRISTOWN,NJ,40.7952,-74.4873
7961,CONVENT STATION,NJ,40.7968,-74.4815
7962,MORRISTOWN,NJ,40.8673,-74.5783
7963,MORRISTOWN,NJ,40.7968,-74.4815
7970,MOUNT FREEDOM,NJ,40.8055,-74.5738
7974,NEW PROVIDENCE,NJ,40.7004,-74.4023
7976,NEW VERNON,NJ,40.7347,-74.4845
7977,PEAPACK,NJ,40.7079,-74.6541
7978,PLUCKEMIN,NJ,40.6425,-74.6396
7979,POTTERSVILLE,NJ,40.7026,-74.7276
7980,STIRLING,NJ,40.6774,-74.4968
7981,WHIPPANY,NJ,40.8219,-74.42
7999,WHIPPANY,NJ,40.8673,-74.5783
8001,ALLOWAY,NJ,39.5591,-75.3506
8002,CHERRY HILL,NJ,39.9308,-75.0175
8003,CHERRY HILL,NJ,39.8805,-74.9706
8004,ATCO,NJ,39.76,-74.8665
8005,BARNEGAT,NJ,39.7552,-74.247
8006,BARNEGAT LIGHT,NJ,39.7512,-74.1146
8007,BARRINGTON,NJ,39.8651,-75.0564
8008,BEACH HAVEN,NJ,39.6411,-74.1922
8009,BERLIN,NJ,39.7788,-74.9308
8010,BEVERLY,NJ,40.0565,-74.9114
8011,BIRMINGHAM,NJ,39.976,-74.7114
8012,BLACKWOOD,NJ,39.7901,-75.0367
8014,BRIDGEPORT,NJ,39.8016,-75.3478
8015,BROWNS MILLS,NJ,39.9597,-74.5655
8016,BURLINGTON,NJ,40.068,-74.8454
8018,CEDAR BROOK,NJ,39.7154,-74.9007
8019,CHATSWORTH,NJ,39.8019,-74.5256
8020,CLARKSBORO,NJ,39.7992,-75.2237
8021,CLEMENTON,NJ,39.8036,-75.0058
8022,COLUMBUS,NJ,40.0642,-74.6899
8023,DEEPWATER,NJ,39.6815,-75.4934
8025,EWAN,NJ,39.7015,-75.1629
8026,GIBBSBORO,NJ,39.8365,-74.971
8027,GIBBSTOWN,NJ,39.8231,-75.2751
8028,GLASSBORO,NJ,39.7068,-75.1172
8029,GLENDORA,NJ,39.8404,-75.0697
8030,GLOUCESTER CITY,NJ,39.8911,-75.117
8031,BELLMAWR,NJ,39.8689,-75.0944
8032,GRENLOCH,NJ,39.7788,-75.0601
8033,HADDONFIELD,NJ,39.8954,-75.0417
8034,CHERRY HILL,NJ,39.9074,-75.0008
8035,HADDON HEIGHTS,NJ,39.8788,-75.0664
8036,HAINESPORT,NJ,39.9872,-74.8293
8037,HAMMONTON,NJ,39.638,-74.7728
8038,HANCOCKS BRIDGE,NJ,39.4716,-75.4902
8039,HARRISONVILLE,NJ,39.6931,-75.2711
8041,JOBSTOWN,NJ,40.0387,-74.6873
8042,JULIUSTOWN,NJ,40.0123,-74.6646
8043,VOORHEES,NJ,39.8504,-74.9646
8045,LAWNSIDE,NJ,39.8676,-75.0317
8046,WILLINGBORO,NJ,40.029,-74.8835
8048,LUMBERTON,NJ,39.9651,-74.8067
8049,MAGNOLIA,NJ,39.8538,-75.0393
8050,MANAHAWKIN,NJ,39.705,-74.2604
8051,MANTUA,NJ,39.787,-75.1785
8052,MAPLE SHADE,NJ,39.9511,-74.9946
8053,MARLTON,NJ,39.8845,-74.9067
8054,MOUNT LAUREL,NJ,39.9478,-74.9036
8055,MEDFORD,NJ,39.8637,-74.8223
8056,MICKLETON,NJ,39.7857,-75.2498
8057,MOORESTOWN,NJ,39.9683,-74.9533
8059,MOUNT EPHRAIM,NJ,39.8827,-75.0929
8060,MOUNT HOLLY,NJ,40.0086,-74.7896
8061,MOUNT ROYAL,NJ,39.8097,-75.2082
8062,MULLICA HILL,NJ,39.7252,-75.2065
8063,NATIONAL PARK,NJ,39.8664,-75.1794
8064,NEW LISBON,NJ,39.9582,-74.6279
8065,PALMYRA,NJ,40.0037,-75.0257
8066,PAULSBORO,NJ,39.8312,-75.2242
8067,PEDRICKTOWN,NJ,39.7435,-75.412
8068,PEMBERTON,NJ,39.9712,-74.6676
8069,PENNS GROVE,NJ,39.6994,-75.4495
8070,PENNSVILLE,NJ,39.6491,-75.5155
8071,PITMAN,NJ,39.7312,-75.1297
8072,QUINTON,NJ,39.5459,-75.4124
8073,RANCOCAS,NJ,40.0095,-74.8668
8074,RICHWOOD,NJ,39.7206,-75.1681
8075,RIVERSIDE,NJ,40.0293,-74.9497
8076,RIVERTON,NJ,40.0115,-75.0149
8077,RIVERTON,NJ,40.002,-74.9952
8078,RUNNEMEDE,NJ,39.8508,-75.0742
8079,SALEM,NJ,39.5591,-75.4521
8080,SEWELL,NJ,39.7473,-75.0899
8081,SICKLERVILLE,NJ,39.7354,-74.9864
8083,SOMERDALE,NJ,39.84,-75.0309
8084,STRATFORD,NJ,39.8288,-75.0147
8085,SWEDESBORO,NJ,39.7529,-75.3362
8086,THOROFARE,NJ,39.8457,-75.1943
8087,TUCKERTON,NJ,39.5881,-74.3646
8088,VINCENTOWN,NJ,39.8604,-74.6693
8089,WATERFORD WORKS,NJ,39.7215,-74.8609
8090,WENONAH,NJ,39.7993,-75.1536
8091,WEST BERLIN,NJ,39.8051,-74.9255
8092,WEST CREEK,NJ,39.6627,-74.2885
8093,WESTVILLE,NJ,39.8605,-75.1323
8094,WILLIAMSTOWN,NJ,39.665,-74.971
8095,WINSLOW,NJ,39.6549,-74.8685
8096,DEPTFORD,NJ,39.7539,-74.996
8097,WOODBURY HEIGHTS,NJ,39.8142,-75.153
8098,WOODSTOWN,NJ,39.6457,-75.3248
8099,BELLMAWR,NJ,39.8676,-75.0946
8101,CAMDEN,NJ,39.9259,-75.1196
8102,CAMDEN,NJ,39.9512,-75.1186
8103,CAMDEN,NJ,39.9351,-75.1117
8104,CAMDEN,NJ,39.9186,-75.1078
8105,CAMDEN,NJ,39.9484,-75.0864
8106,AUDUBON,NJ,39.891,-75.0724
8107,OAKLYN,NJ,39.908,-75.0849
8108,COLLINGSWOOD,NJ,39.9157,-75.0634
8109,MERCHANTVILLE,NJ,39.9519,-75.0482
8110,PENNSAUKEN,NJ,39.9723,-75.0607
8201,ABSECON,NJ,39.4218,-74.4949
8202,AVALON,NJ,39.0951,-74.7262
8203,BRIGANTINE,NJ,39.4101,-74.3646
8204,CAPE MAY,NJ,38.9711,-74.9214
8205,ABSECON,NJ,39.4745,-74.4575
8210,CAPE MAY COURT HOUSE,NJ,39.1378,-74.7806
8212,CAPE MAY POINT,NJ,38.9372,-74.9654
8213,COLOGNE,NJ,39.5092,-74.6086
8214,DENNISVILLE,NJ,39.1932,-74.8252
8215,EGG HARBOR CITY,NJ,39.5331,-74.6177
8217,ELWOOD,NJ,39.5737,-74.72
8218,GOSHEN,NJ,39.1415,-74.8529
8219,GREEN CREEK,NJ,39.0462,-74.9013
8220,LEEDS POINT,NJ,39.4921,-74.429
8221,LINWOOD,NJ,39.3469,-74.5807
8223,MARMORA,NJ,39.2586,-74.6593
8224,NEW GRETNA,NJ,39.5923,-74.451
8225,NORTHFIELD,NJ,39.3703,-74.5552
